stop_id,stop_name,stop_lat,stop_lon,location_type,parent_station,zone
0001RLW,Railways,-1.290884,36.828242,0.0,,0
0002KOJ,Koja,-1.28123,36.822596,1.0,,0
0003NGR,Ngara,-1.274395,36.823806,1.0,,0
0004ODN,Odeon,-1.282769,36.825032,1.0,,0
0005AMB,Kencom/Ambassadeur,-1.285963,36.826048,1.0,,0
0006BSS,Bus Station,-1.287191,36.828881,1.0,,0
0007COM,Commercial,-1.284282,36.826188,1.0,,0
0008MUT,Muthurwa,-1.288049,36.833947,1.0,,0
0010OTC,OTC,-1.284947,36.830994,1.0,,0
0011TUS,Tusker/Ronald Ngala,-1.285346,36.828574,1.0,,0
0013ALS,Allsops,-1.244951,36.867888,1.0,,3
0014KRA,Kariobangi Round About,-1.262408,36.879051,1.0,,0
010044G,44 Githurai,-1.195514202,36.9026953,,,3
0100AAA,Sahala,-1.206232309,36.79068089,,,2
0100AAE,Aga Khan Hospital Entrance,-1.26177,36.82218,,,0
0100ACP,PCEA,-1.184212893,36.90751523,,,3
0100AEI,Nyari Police,-1.225512028,36.78804159,,,2
0100AEL,Membley Stage,-1.160296798,36.92236662,,,3
0100AKA,Chamoka,-1.218550569,36.77443743,,,2
0100AL2,Lane 26,-1.202838153,36.7692849,,,2
0100AMY,Kwa Nyama,-1.204494238,36.78601384,,,2
0100ANJ,Kwa Kiwanja,-1.171676248,36.91650867,,,3
0100A.P,A.P.,-1.178289056,36.91195965,,,3
0100APC,PCEA,-1.188633174,36.73722178,,,2
0100ARG,Arya Girls' Secondary School,-1.26081,36.81997,,,0
0100ARI,Kwa Daktari,-1.185328692,36.73338085,,,2
0100ASD,Ambassadors,-1.19794,36.75537,,,2
0100ASW,Car Wash,-1.204816103,36.78255916,,,2
0100AWA,Wataalam,-1.149612397,36.94740772,,,3
0100BKH,Bypass Stage Kiambu,-1.215780973,36.83506072,,,3
0100BKK,Kabuku,-1.154729247,36.67456269,,,2
0100BLD,God's Ability,-1.202671891,36.76871896,,,2
0100CAR,Kwa Machiri,-1.17373082,36.71296388,,,2
0100CBR,Cooperative Bank Ruaka,-1.20678,36.78464,,,2
0100CCD,Coca Cola Depot,-1.25983,36.8176,,,0
0100CHE,Commission Of Higher Education,-1.227579,36.797994,,,2
0100CHL,Chantilly School,-1.181032,36.762044,,,2
0100CTC,Christco,-1.19626,36.75305,,,2
0100CTR,Doctor's Park,-1.261465877,36.82164699,,,0
0100DPA,Delta Petrol Station Ruaka/Border,-1.208925247,36.78782701,,,2
0100EIE,Mfereji,-1.203090316,36.77023709,,,2
0100EIL,Milele,-1.200815767,36.76228434,,,2
0100EIO,Sovereign,-1.169498205,36.70019388,,,2
0100ESN,Dispensary,-1.190204948,36.73913687,,,2
0100GAO,Kahigo,-1.203959316,36.77340478,,,2
0100GUG,Guango,-1.195629,36.780871,,,2
0100GVS,Green Valley School,-1.124978,36.677156,,,2
0100HYD,Shady,-1.19387573,36.74975574,,,2
0100IKW,Kwa Viti,-1.186262101,36.73443764,,,2
0100ILL,Milele,-1.204420656,36.77496046,,,2
0100INT,Nish Raaj Estate,-1.257623434,36.81249261,,,0
0100ITS,Gwaiti,-1.18686676,36.73514843,,,2
0100JAK,Jakai,-1.219687,36.77222,,,2
0100JO.,O.J,-1.152970523,36.92023158,,,3
0100JOA,Kianjogu,-1.183204383,36.73027486,,,2
0100JYL,Joyland,-1.204896569,36.77661538,,,2
0100KCK,Kenchic,-1.132722,36.69801,,,2
0100KHR,Kahawa Railways Roundabout,-1.186098,36.906817,,,3
0100KMU,Kwa Sukuma,-1.179068416,36.72405213,,,2
0100KNA,Kona,-1.221391,36.779214,,,2
0100KNE,Kwa Njenga,-1.220363742,36.77845538,,,2
0100KSS,Kwa Shule/Seth Home Of Love Children's Home/Muchatha Dispensary,-1.189608,36.773253,,,2
0100KTC,Quickmart,-1.206720471,36.78343892,,,2
0100KWH,Kwa Chief,-1.216485232,36.82175428,,,2
0100LDL,Redhill,-1.169991821,36.7014733,,,2
0100LHH,Jamhuri School,-1.27250433,36.82257503,,,0
0100LIK,Likoni,-1.179095,36.760938,,,2
0100LMC,Limuru Catering,-1.124471,36.679689,,,2
0100LPS,Limuru Post Office,-1.118464,36.643126,,,2
0100LSM,Life Sanctuary/Muchatha,-1.191495,36.775223,,,2
0100..M,K.M.,-1.167726517,36.91900849,,,3
0100MCO,Stima Sacco,-1.272774106,36.8208611,,,0
0100MCY,Mothers Mercys/GD,-1.179957,36.725401,,,2
0100MFB,Mifereji/God's Ability,-1.20213,36.76693,,,2
0100MIS,Mary Immaculate Secondary School/Muchatha,-1.190679,36.774297,,,2
0100MOM,Mombasa,-1.17786,36.760345,,,2
0100MOU,Mugumo,-1.209636211,36.79986477,,,2
0100MRB,Maramba Tea Factory,-1.134476,36.703498,,,2
0100MRC,Movers/Rosslyn Centre,-1.210947633,36.79020882,,,2
0100NAM,National Oil/Muchatha,-1.193428,36.777892,,,2
0100NCE,Container,-1.20452258,36.77553982,,,2
0100NDT,Ndenderu Junction,-1.19233,36.7437,,,2
0100NJT,Kwa Njoki/Thimbigwa Ack,-1.183852,36.763684,,,2
0100NKD,Ndenderu Kwa Maduka,-1.19449,36.75061,,,2
0100NMT,New Muthaiga,-1.228621,36.798616,,,2
0100NRP,Round About Eastern Bypass,-1.155235,36.926119,,,3
0100NSO,Movers,-1.210058659,36.7891708,,,2
0100ONO,Ngomongo,-1.202822059,36.89014524,,,3
0100OOA,Kwa Soko,-1.149789423,36.94882929,,,3
0100OTN,Hilton,-1.150637001,36.94259048,,,3
0100OTS,Posta,-1.170669078,36.70802593,,,2
0100PEF,Pefa/All Nations/Muchatha,-1.197129,36.782933,,,2
0100PNA,Amani Plaza,-1.259625882,36.81713551,,,0
0100POA,Pa Mutoori,-1.202194422,36.76717132,,,2
0100POW,Power,-1.21731,36.778253,,,2
0100PSA,La Philla Carwash,-1.190634102,36.90608829,,,3
0100RBJ,Ruaka/Banana Junction/Tuskys Supermarket,-1.20722,36.78602,,,2
0100RCN,Ruaka Catholic Church Entrance,-1.20614,36.78059,,,2
0100REE,PCEA Ndenderu,-1.195537216,36.75203025,,,2
0100RES,Runda Estate Entrance,-1.21873,36.80177,,,2
0100RGH,Jamhuri High School,-1.272203922,36.82239532,,,0
0100RJI,Ruiru Road Junction,-1.152105331,36.9199419,,,3
0100RKH,Runda/Karura Carwash,-1.22091,36.80144,,,2
0100RRD,Ruaka Redeemed Gospel Church,-1.20651,36.78206,,,2
0100RRJ,Redhill Road Junction,-1.23398,36.80339,,,2
0100RRP,Rosslyn Road/Karura Community Chapel,-1.216397882,36.79927468,,,2
0100RUD,Runda Road,-1.215553,36.814957,,,2
0100RUI,Marurui/JuaKali,-1.211281747,36.87443823,,,3
0100RYA,Rumenye,-1.199644804,36.75815105,,,2
0100SAR,Car Wash,-1.217005616,36.77721083,,,2
0100SHT,Sacred Heart,-1.186278,36.767456,,,2
0100SKU,Kibutu Stage,-1.188273758,36.77131802,,,2
0100SLG,Slaughter/Bypass,-1.20578,36.78005,,,2
0100SNW,Good News/Nyari Gate 2,-1.225479841,36.79151773,,,2
0100S/R,Rosslyn Road/Riviera,-1.217128962,36.80043072,,,2
0100STI,Site,-1.178033084,36.7224589,,,2
0100T1I,Barrier 1/Nyari Gate 1,-1.226568818,36.79569393,,,2
0100TCP,Total/City Park,-1.25943,36.82673,,,0
0100TIG,Tigoni,-1.126686,36.671788,,,2
0100TOR,Metro,-1.215183198,36.85956538,,,3
0100TPS,Post,-1.149687499,36.94552481,,,3
0100TTM,Total/Muchatha,-1.193078,36.777371,,,2
0100UBP,Bumps,-1.206464499,36.78183764,,,2
0100UEA,Delta Petrol Station Ruaka/Border,-1.208792657,36.78792626,,,2
0100UMA,Munata,-1.220374471,36.76839173,,,2
0100UMT,Makutano,-1.192345351,36.74523085,,,2
0100VDA,Victory Gospel/Sda,-1.19432,36.7429,,,2
0100VEV,Velvet Lounge/Kigwaru,-1.202782,36.785553,,,2
0100VIN,Victory Inn,-1.181773,36.762476,,,2
0100VLU,6th Parklands Avenue/Regal House/Kobil,-1.257893175,36.8269524,,,0
0100WSI,Nyari West,-1.225469112,36.78594947,,,2
0100XAM,Maxx,-1.182002753,36.72858506,,,2
0101AGA,Aga Khan Academy,-1.26628,36.82331,,,0
0101AKE,Aga Khan Entrance,-1.26178,36.82224,,,0
0101AKH,Aga Khan Hospital Junction/3rd Parklands Ave,-1.26288,36.8249,,,0
0101AKN,Kwa Nyama,-1.204490429,36.78601921,,,2
0101ALM,Amani Plaza/Almond Court,-1.25962,36.81717,,,0
0101AME,Ambassadors Entrance,-1.19804,36.75538,,,2
0101ARA,Garage,-1.222203738,36.78044558,,,2
0101ARC,Car Wash,-1.204839116,36.78251624,,,2
0101ARR,Nish Raaj/Mulberry,-1.257580519,36.81246042,,,0
0101ARY,Arya Girls' Secondary School,-1.26085,36.82007,,,0
0101BKH,Bypass Stage Kiambu,-1.215448,36.83521,,,3
0101BLU,Blue Kiosk Stage,-1.154688,36.675681,,,2
0101CAV,Church Of Acts/Velvet Lounge,-1.203525,36.785397,,,2
0101CEF,Kwa Chief,-1.216447681,36.8218857,,,2
0101CHC,Christco Church,-1.19628,36.75294,,,2
0101CHF,Sub Chief,-1.219799,36.778197,,,2
0101CPK,City Park,-1.26057,36.82615,,,0
0101DGG,Ridgesways Girls,-1.215046,36.864683,,,3
0101DPB,Delta Petrol Station/Border,-1.20918,36.7882,,,2
0101ETA,Marrieta,-1.143779,36.661749,,,2
0101FRK,Furaha/Kag Ndenderu/Catholic,-1.1954,36.75175,,,2
0101GOG,Guango,-1.195673,36.780783,,,2
0101GRJ,Gacharage Junction,-1.20041,36.76058,,,2
0101GVS,Green Valley School,-1.125007,36.677194,,,2
0101HMO,Chamoka,-1.218749052,36.77409947,,,2
0101HUS,SDA Church,-1.220481759,36.76972747,,,2
0101HWO,Mwisho Road,-1.222670442,36.78127706,,,2
0101IAI,Gwaiti,-1.18060112,36.7263186,,,2
0101IGA,Kahigo,-1.203356981,36.77130997,,,2
0101ION,Junction To Limuru Town,-1.133245,36.643564,,,2
0101IRR,River,-1.221822864,36.77986622,,,2
0101JAK,Jakai,-1.219745,36.772222,,,2
0101JHS,Jamhuri High School,-1.27335,36.82297,,,0
0101JLI,Jua Kali,-1.211161,36.874486,,,3
0101KAT,Kwa Njoki/Ack Thimbigwa,-1.183893,36.763636,,,2
0101KCK,Kenchic,-1.132763,36.697946,,,2
0101KHR,Kahawa Railways Roundabout,-1.185664,36.906667,,,3
0101KKB,Kamukabi,-1.222324,36.780623,,,2
0101KME,Kimera Medical Centre,-1.146608,36.716753,,,2
0101KOB,Kobil/Banana,-1.17466,36.759053,,,2
0101KTO,Kwa Moturi/Gachiraini,-1.20202,36.7662,,,2
0101LIK,Likoni,-1.178733,36.760654,,,2
0101LMA,Mlanda,-1.219961411,36.76738858,,,2
0101LMC,Limuru Catering,-1.124567,36.679518,,,2
0101LSC,Life Sanctuary Church/Muchatha Shopping Centre,-1.19145,36.775071,,,2
0101MCC,Muchatha Shopping Centre,-1.192055,36.775879,,,2
0101MCY,Mothers Mercys,-1.180059,36.725487,,,2
0101MDS,Muchatha Dispensary/Kwa Shule/Yamongo Drive,-1.189723,36.773257,,,2
0101MIC,Mary Immaculate Catholic Church/Muchatha Shopping Centre,-1.190698,36.774211,,,2
0101MIM,Mimosa,-1.212005,36.804767,,,2
0101M.K,K.M.,-1.16617772,36.91985339,,,3
0101MKB,Mkulima Supermarket/Banana,-1.175287,36.759291,,,2
0101MOM,Mombasa,-1.177906,36.760269,,,2
0101MRB,Maramba Tea Factory,-1.134492,36.703458,,,2
0101MTH,Muthaiga Junction,-1.228633,36.798518,,,2
0101MUC,Redeemed/Pefa Muchatha,-1.197213,36.782874,,,2
0101NDJ,Ndenderu Junction/Makutano,-1.192266,36.743758,,,2
0101N'G,Kwa Ng'ang'a,-1.217756635,36.77814424,,,2
0101NGG,Nyari Gate 3,-1.225371,36.785596,,,2
0101NJK,Kwa Njoki Kamili,-1.184899,36.764492,,,2
0101NRE,Nish Raaj Estate,-1.25862,36.81484,,,0
0101NRP,Roundabout Eastern Bypass,-1.155165,36.926129,,,3
0101NTO,Kwa Kanisa ACK/National Oil,-1.193291,36.777536,,,2
0101NYG,Nyari Gate 2,-1.225544,36.791386,,,2
0101NYP,Nyari Police,-1.225594,36.787764,,,2
0101NYR,Nyari/Barrier 1,-1.226487,36.795583,,,2
0101OOO,Githogoro,-1.216517419,36.82500243,,,2
0101OTA,National Oil,-1.193820602,36.74957335,,,2
0101PMR,Pm Flats/ Runda View,-1.20429,36.77439,,,2
0101PMV,Pm Flats/ Runda View 2,-1.20369,36.77218,,,2
0101POW,Power,-1.217477,36.778214,,,2
0101RCC,Ruaka Catholic Church,-1.2062,36.78055,,,2
0101RCK,Ruaka ACK Church,-1.20676,36.78382,,,2
0101RDC,Ruaka DC,-1.2065,36.78171,,,2
0101RED,Red Hill/Posta,-1.17081,36.708554,,,2
0101REE,Runda Estate Entrance,-1.2186,36.80168,,,2
0101REN,Redeemed Ndenderu,-1.19238,36.74504,,,2
0101RIE,Limuru Diaries,-1.125841,36.642507,,,2
0101RIH,Commissioner of Higher Education,-1.227861643,36.79806501,,,2
0101RJI,Ruiru Road Junction,-1.152135,36.91984,,,3
0101RKJ,Ruaka Junction,-1.207095981,36.78598166,,,2
0101RMY,Rumenye,-1.19961,36.75794,,,2
0101ROK,Rosslyn Road/Karura Community Chapel,-1.216499805,36.79930687,,,2
0101ROR,Rosslyn Road/Riviera,-1.217250824,36.80042267,,,2
0101RSH,Roslyn Heights,-1.223669,36.782832,,,2
0101RUA,Marurui,-1.210805833,36.8751812,,,3
0101RUD,Runda Road,-1.215523,36.815038,,,2
0101SDA,SDA Church,-1.223143,36.781961,,,2
0101SHR,Shakers/Rosslyn Gate,-1.21115,36.79024,,,2
0101SHT,Sacred Heart,-1.186283,36.767421,,,2
0101SLT,Slaughter,-1.20523,36.77754,,,2
0101STP,Stima Plaza,-1.27043,36.82048,,,0
0101TIG,Tigoni,-1.126739,36.671944,,,2
0101VRY,Victory,-1.181719,36.762391,,,2
0101WBR,Wambugu Road,-1.26799,36.82127,,,0
0101WIA,Kwa Kuria,-1.218400365,36.774652,,,2
0101WID,Windsor Advice,-1.215566,36.850327,,,3
0101YSA,Nyari West,-1.224193937,36.78374469,,,2
0101ZAK,Zakawa,-1.179181,36.760914,,,2
0102KHJ,Koja,-1.281428,36.822532,0.0,0002KOJ,0
0103MSQ,Kwa Mosque/Highridge Mwisho,-1.25687,36.81077,,,0
0110AAN,Oilibya/2nd Parklands Avenue,-1.264200211,36.8246913,,,0
0110ACG,Gachie,-1.181385845,36.7275551,,,2
0110AEA,Shell Banana,-1.175848246,36.75952971,,,2
0110AGK,Aga Khan Academy,-1.266404986,36.82319462,,,0
0110AIG,Gacharaini,-1.201715469,36.76474392,,,2
0110AOA,Mwambao,-1.256713003,36.82633013,,,0
0110AOH,Mama Shop,-1.1517528,36.93119645,,,3
0110APS,Aga Khan Hospital Stage,-1.26198,36.8227,,,0
0110APT,Aga Khan Hospital Stage 2,-1.26277,36.82467,,,0
0110ASP,Stima Plaza,-1.270036697,36.82055533,,,0
0110AST,Ambassadors Stage,-1.19864,36.75634,,,2
0110AUK,Karura,-1.24724865,36.81577563,,,0
0110BAA,Banana Terminus,-1.174235,36.758765,,,2
0110BDO,Boda,-1.210380524,36.78958386,,,2
0110BLV,6th Parklands Avenue/Regal House/Kobil,-1.257905424,36.82689607,,,0
0110BNI,Kobil banana,-1.174563825,36.75899327,,,2
0110BUK,Kabuku Junction Stage,-1.150767,36.668272,,,2
0110CEJ,Gacharage Junction,-1.20033,36.76062,,,2
0110COH,Gacharage Junction - Gachiraini Stage,-1.200470924,36.76059455,,,2
0110CUT,Karura Community Chapel,-1.215755707,36.79781556,,,2
0110DAS,Ridgeways Girls,-1.214993119,36.86438799,,,3
0110FRM,Muguku Farm,-1.17646,36.718384,,,2
0110FSA,Karura Forest/Belgian Embassy,-1.248370528,36.81659102,,,0
0110GAC,Gacharage,-1.192978352,36.74807936,,,2
0110GTH,Gathanga Stage/Kiambea,-1.198999,36.78444,,,2
0110HHH,JamhurI High,-1.272161007,36.82225585,,,0
0110HUN,5th parklands avenue,-1.260938644,36.82585001,,,0
0110IDR,City park drive,-1.257162094,36.82656348,,,0
0110ILU,Limuru Terminus,-1.108075708,36.64339274,,,2
0110IRT,Ngara,-1.274190277,36.82365865,0.0,0003NGR,0
0110ISR,Ruiru Prisons,-1.151870817,36.92952543,,,3
0110KAU,Kianjogu Stage,-1.180979,36.727015,,,2
0110KGQ,Highridge/Kwa Mosque/Mwisho,-1.256852478,36.81073576,,,0
0110KKB,Garage,-1.222414,36.780964,,,2
0110KRS,Karura Stage,-1.19437,36.73198,,,2
0110KSL,Nish Raaj Estate/Kusi Lane,-1.25864,36.81485,,,0
0110LAR,Rosslyn Riviera,-1.215369433,36.79668099,,,2
0110LCM,Decimal,-1.203015178,36.76999301,,,2
0110LHL,Full Gospel Church,-1.151017874,36.93746209,,,3
0110LIG,Kobil Gigiri,-1.239215791,36.81125343,,,0
0110LJA,Joyland,-1.204860538,36.77656978,,,2
0110MKT,Makutano,-1.159421,36.74364,,,2
0110MTS,Muthaiga Shopping Centre,-1.250537038,36.81984186,,,0
0110MYA,City Park Market,-1.261573166,36.8257615,,,0
0110NGP,Ndenderu Redeemed Gospel,-1.19222,36.74442,,,2
0110NKT,Nakumatt Stage,-1.26018,36.81855,,,0
0110NSG,Ndenderu Stage,-1.1926,36.74685,,,2
0110OLB,Blue Kiosk,-1.154766083,36.67294264,,,2
0110OVL,3rd Parklands Avenue/Aga Kan Hospital Junction,-1.2632415,36.82506412,,,0
0110PBS,Bypass,-1.204483509,36.78551495,,,2
0110PMA,Stima Plaza,-1.269993782,36.82060361,,,0
0110PMT,Pm Flats,-1.20375,36.77257,,,2
0110/PU,UNEP/KTTC,-1.238447195,36.81041658,,,0
0110R/B,Belgian Embassy/Karura,-1.246905327,36.81568444,,,0
0110REU,Rwenu,-1.194505692,36.73557758,,,2
0110REV,Two Rivers,-1.212894917,36.79242432,,,2
0110RID,Windsor Advice,-1.215743423,36.84993625,,,3
0110RIS,Two Rivers,-1.211571425,36.79079086,,,2
0110RNO,Rossyln,-1.233918071,36.80209637,,,2
0110ROA,Wambugu Road,-1.268078685,36.82123929,,,0
0110ROS,Rosslyn Total,-1.210405827,36.78973138,,,2
0110RRS,Two Rivers,-1.214472055,36.79485977,,,2
0110RTC,Ruaka Quickmart,-1.206689805,36.78235799,,,2
0110RTU,Kobil/Regal house/6th Parklands ave,-1.258020401,36.82704628,,,0
0110SAI,Stima Plaza,-1.272611618,36.82100058,,,0
0110SIH,Gasolina/Gichagi Mwisho,-1.219559079,36.76671803,,,2
0110SOI,Mimosa,-1.212091684,36.8047142,,,2
0110SPU,St. Paul's University Limuru,-1.147694,36.665794,,,2
0110SRT,Marurui Police Post,-1.214639872,36.86785609,,,3
0110SSA,Canadian embassy,-1.241283417,36.81334019,,,0
0110TAA,Stima Plaza,-1.269752383,36.82057947,,,0
0110TOH,Githogoro,-1.216533512,36.82539135,,,2
0110TPA,3rd Parklands Avenue/Aga Kan Hospital Junction,-1.263229251,36.82507753,,,0
0110TUQ,Equity,-1.205160946,36.77773386,,,2
0110TVM,Traveller's View Muchatha,-1.188491,36.771639,,,2
0110UMI,Mulima,-1.220399737,36.76975965,,,2
0110UMK,Mkulima supermarket,-1.175078809,36.75925076,,,2
0110UNA,UNEP/KTTC,-1.238032579,36.80994987,,,0
0110VKS,2nd Parklands Avenue,-1.264834642,36.82441235,,,0
0110VMT,Village Market,-1.23006,36.80399,,,2
0110WAM,Kwa Jeki,-1.194574,36.779445,,,2
0110WOJ,Maziwa Junction,-1.193992227,36.90453798,,,3
0110WRS,Two Rivers,-1.208241641,36.79728448,,,2
0110YIL,OiLibya/2nd Parklands Avenue,-1.26424849,36.82468057,,,0
0110YSP,City Park/5th Parklands Avenue,-1.261085039,36.82602704,,,0
01114IA,44 Githurai,-1.19544062,36.90279722,,,3
0111A26,Lane 26,-1.202558398,36.76809669,,,2
0111AAR,Ruaka,-1.207579493,36.78627133,,,2
0111ACP,Agha khan hospital junction/ 3rd parklands ave,-1.261894941,36.82537794,,,0
0111AES,Rosslyn Valley,-1.223200679,36.80257916,,,2
0111AIT,Muthaiga Mini Market,-1.250233166,36.82078838,,,0
0111AKA,Kwa Nyaga,-1.168398589,36.69651657,,,2
0111AKS,Aga Khan Hospital Stage,-1.26237,36.82369,,,0
0111ALA,Sahala,-1.20683468,36.79277837,,,2
0111AMB,Ambassadors Stage,-1.19859,36.75619,,,2
0111AMK,Kwa Mbao,-1.170485347,36.70516402,,,2
0111ARD,Kwa Daktari,-1.184670389,36.73256814,,,2
0111ATA,Total City Park,-1.259304017,36.82673782,,,0
0111AWM,Maziwa,-1.193209022,36.90509319,,,3
0111AXM,Maxx,-1.181895465,36.72843486,,,2
0111AYS,Gitambaya Police Post,-1.149767965,36.94896609,,,3
0111BAA,Banana Terminus,-1.174015,36.75884,,,2
0111BAG,ACK Thibigwa,-1.181042522,36.76208586,,,2
0111BEK,Belgian Embassy/Karura,-1.24701,36.8156,,,0
0111BPY,Bypass,-1.205770969,36.77934051,,,2
0111BUK,Kabuku Stage,-1.154742,36.674973,,,2
0111CEP,PCEA,-1.189026296,36.7375356,,,2
0111CNT,Container,-1.197221607,36.89955175,,,3
0111CRA,Car Wash,-1.21710754,36.77706063,,,2
0111EDH,The Dam,-1.170045465,36.70123726,,,2
0111EED,Ndenderu,-1.192216605,36.74356252,,,2
0111ENP,Dispenser,-1.190345943,36.73904836,,,2
0111EYE,Membley,-1.156393021,36.92510515,,,3
0111FRM,Muguku Farm/GD,-1.176554,36.718575,,,2
0111GIE,Sovereign,-1.16958949,36.70015901,,,2
0111GIM,Muthaiga Mini Market,-1.2501508,36.82074845,,,0
0111HDE,Shade,-1.193895668,36.74959213,,,2
0111HRT,Mothero,-1.166445136,36.69361711,,,2
0111IAC,Pa Machiri,-1.172893971,36.71205729,,,2
0111ICT,Quickmart,-1.206678271,36.78331017,,,2
0111IGA,Gacharaini,-1.201393604,36.76348329,,,2
0111IGK,Kobil Gigiri,-1.23922956,36.81144118,,,0
0111IME,Milele,-1.201035708,36.76265985,,,2
0111ISE,Site,-1.178182483,36.72254205,,,2
0111JEK,Kwa Njoki,-1.194099,36.778615,,,2
0111JM,JM,-1.188322037,36.90638065,,,3
0111KAN,Aga Khan,-1.262254447,36.82536989,,,0
0111KAU,Kianjogu Stage,-1.181209,36.727208,,,2
0111KEA,Kiambea,-1.198614,36.784122,,,2
0111KIV,Kibutu Stage/Bread of Life,-1.188314,36.771234,,,2
0111KNA,Kona,-1.220945,36.778584,,,2
0111KNE,Aga Khan Entrance,-1.261342496,36.82584196,,,0
0111KOG,Kobil Gigiri,-1.239407301,36.81168795,,,0
0111KRU,Karura/Runda,-1.22082,36.80136,,,2
0111LIS,Emsoil,-1.195987791,36.75258547,,,2
0111LON,Joyland,-1.204928756,36.77661002,,,2
0111LSO,Chantilly School,-1.180808008,36.76191151,,,2
0111MAO,Mwambao,-1.256381929,36.82609141,,,0
0111MCM,Mirai Court/Mifereji,-1.20322,36.77046,,,2
0111MIF,Mfereji,-1.203888774,36.77303195,,,2
0111MKT,Makutano,-1.159354,36.743484,,,2
0111MME,Muthaiga Mini Market,-1.250145435,36.820786,,,0
0111MRE,Muthaiga Mini Market,-1.25019908,36.82072967,,,0
0111NDS,Ndenderu Stage/Shell,-1.19303,36.74802,,,2
0111NKM,Nakumatt/Post Office,-1.26012,36.81825,,,0
0111NMO,Ngomongo,-1.200252503,36.89471304,,,3
0111NOI,Kia Njogu,-1.183815926,36.73128337,,,2
0111NTA,Muthaiga Mini Market,-1.250145435,36.82079136,,,0
0111.OJ,O.J.,-1.153206557,36.92035228,,,3
0111OJC,Jowac,-1.193359226,36.74874991,,,2
0111OLB,OiLibya/2nd Parklands Avenue,-1.26469,36.82432,,,0
0111OLS,Total Rosslyn,-1.21055907,36.78952754,,,2
0111RAU,Quarry,-1.207043856,36.88213885,,,3
0111RHK,6th Parklands Avenue/Regal House/Kobil,-1.25777,36.82691,,,0
0111RHR,Redhill Road/Polish Embassy,-1.234529614,36.80346429,,,2
0111RNE,Rwenu,-1.193967312,36.74329042,,,2
0111RNI,Container,-1.204575419,36.77539229,,,2
0111ROT,Two Rivers,-1.214563251,36.79482222,,,2
0111RPS,Ruiru Prisons,-1.151827,36.929292,,,3
0111RRY,Fairy Flowers,-1.164890259,36.69146866,,,2
0111RST,Ruaka Stage/Tuskys,-1.207146,36.785877,,,2
0111SAR,Carwash,-1.20097053,36.78517699,,,2
0111SNH,Shell Banana,-1.175822139,36.75949216,,,2
0111SPS,Stima Plaza Stage,-1.2696,36.8204,,,0
0111SPU,St. Paul's University Limuru,-1.148257,36.666204,,,2
0111TNN,Aga Khan Entrance,-1.26143825,36.82573199,,,0
0111TOE,Two Rivers,-1.214559316,36.79499388,,,2
0111TRI,Little Servant,-1.186605424,36.76822275,,,2
0111TRV,Two Rivers,-1.214520335,36.79460764,,,2
0111TUN,UNEP/Gigiri/KTTC,-1.238681674,36.81054533,,,0
0111TVI,Kwa Viti,-1.186836094,36.73504382,,,2
0111.UK,K.U.,-1.174814433,36.9143039,,,3
0111UKG,Kwa Njogu,-1.192592114,36.74655586,,,2
0111USA,Kwa Sukuma,-1.178994834,36.72388852,,,2
0111VMA,Village Market,-1.22876,36.80443,,,2
0111VWS,Two Rivers,-1.208490729,36.79807305,,,2
0111WNA,Kwa Kiwanja,-1.170839399,36.91703171,,,3
0111WRB,Kwa Bendera,-1.16908443,36.69846654,,,2
0111YSB,Bypass,-1.204768538,36.7854774,,,2
0112LKT,Koja,-1.28127,36.822572,0.0,0002KOJ,0
0112POL,Junction/Poland Embassy,-1.234835,36.803782,,,2
0113BAA,Banana Terminus,-1.17383,36.758605,,,2
0113GCH,Gasolina/Gichagi Mwisho,-1.219641,36.766688,,,2
0113KAR,Karura Mwisho,-1.19435,36.73204,,,2
0113LMD,Limuru Terminus,-1.108043,36.643534,,,2
0113RST,Ruaka Stage,-1.20717,36.78571,,,2
02002IE,Riverside 2,-1.249605149,36.87796533,,,3
0200AAK,Kwa Wachina,-1.222993612,36.90709734,,,3
0200ACM,Mwisho wa Chuma,-1.163516968,36.95318073,,,3
0200AKN,Guru Nanak,-1.270181537,36.83269501,,,0
0200AKO,Mpaka road,-1.264947295,36.80466485,,,0
0200APZ,Stima Plaza,-1.269631863,36.82072163,,,0
0200AVS,Naivas,-1.247291565,36.87247753,,,3
0200BBC,Baba Dogo Catho,-1.244169474,36.88507318,,,3
0200BDJ,Baba Dogo Junction/Dawa,-1.247259378,36.87438726,,,3
0200BER,Redeemed Ndumberi,-1.152985096,36.80867314,,,2
0200BLN,Balkan Sec School,-1.21242,36.83392,,,3
0200BUL,Bull and Bush,-1.217508,36.897464,,,3
0200BWD,Kasarini/Paradise Lost,-1.205964088,36.83213711,,,2
0200CRN,Stima,-1.224013,36.908204,,,3
0200DAU,Mwandus,-1.161258459,36.82121515,,,2
0200DBR,Nduberi Factory,-1.140917,36.805701,,,2
0200DEC,Deliverance Church,-1.241361,36.894047,,,3
0200DMD,Diamond Flats,-1.20399,36.83301,,,2
0200DRU,Muslim Road,-1.27554059,36.83127344,,,0
0200EAC,Cinema,-1.252898902,36.89722359,,,3
0200EBR,Roundabout,-1.15516305,36.92666352,,,3
0200EEE,Redeemed Ngemwa,-1.117368221,36.8161726,,,2
0200EIE,Ridgeviews,-1.223405331,36.83767051,,,3
0200EII,Regional Centre/ICIPE,-1.220014929,36.8940146,,,3
0200ELH,Shell,-1.267559766,36.83087111,,,0
0200EMF,KEMREF,-1.241982311,36.8932566,,,3
0200EUT,Equity,-1.258005023,36.87877536,,,3
0200FHA,Faith Home Academy,-1.25305,36.878651,,,3
0200FRS,St. Francis,-1.226196,36.916057,,,3
0200GEG,Garage/Riverside,-1.249093333,36.87805167,,,3
0200GIT,Githurai,-1.20447278,36.91680372,,,3
0200GNA,Ngemwa,-1.12226057,36.81771755,,,2
0200GNK,Guru Nanak,-1.269521713,36.83210492,,,0
0200GPS,Ngemwa Police Post,-1.121695,36.818793,,,2
0200GRG,Garage,-1.231264,36.924453,,,3
0200GTO,Githogoro/Kigwa,-1.21866,36.83586,,,3
0200HHR,Shirika House,-1.273122668,36.81620908,,,0
0200HML,Garden City/Homeland Inn,-1.230479479,36.87905431,,,3
0200HTN,Hill stone,-1.252511144,36.880036,,,3
0200HUN,Hunters,-1.227583,36.917981,,,3
0200IMI,Kamutiini,-1.23051703,36.92298889,,,3
0200IRR,Riverside,-1.248269409,36.87665105,,,3
0200JIN,Ikinu,-1.100941,36.797296,,,2
0200KAI,Kwa Kairu,-1.143339,36.966445,,,3
0200KAW,Kwa Maua,-1.121935844,37.00715661,,,3
0200KBM,Kariobangi Market Stage,-1.255259,36.878742,,,3
0200KCI,Kariobangi Junction,-1.252570152,36.87895238,,,3
0200KEI,KIE/Pioneer,-1.272531152,36.82724476,,,0
0200KEN,Kenafric,-1.246680021,36.88435972,,,3
0200KEP,Kenya Power,-1.242946386,36.89085066,,,3
0200KJN,Kirigiti/Ruui,-1.17895,36.83748,,,2
0200KS2,KIST,-1.1835,36.83854,,,2
0200KTJ,Junction,-1.152403,36.919994,,,3
0200KUF,KU Fly Over,-1.180681,36.939082,,,3
0200KWH,Bypass/Kwaheri Flyover,-1.215137243,36.83501244,,,3
0200LOK,Kobil/K1,-1.267608046,36.81204629,,,0
0200LPO,Allsops,-1.245715,36.86803667,,,3
0200MAT,Maternity,-1.223112,36.911889,,,3
0200MBA,Mamba,-1.269103289,36.84183329,,,0
0200MBC,Membley Church,-1.159048,36.939119,,,3
0200MGN,2nd Mugumoini Street,-1.218457,36.874002,,,3
0200MNO,Makutano,-1.064306,36.783481,,,2
0200MOS,Mosque Side Ya Juu,-1.24068,36.89471,,,3
0200MRR,Marurui,-1.211112,36.874403,,,3
0200MSH,Mushroom,-1.19579,36.83836,,,2
0200MTE,Muthaiga Golf Club Entrance,-1.25774,36.84292,,,0
0200NEH,Neighbours,-1.227277,36.870709,,,3
0200NES,Corner,-1.217567,36.898027,,,3
0200NFR,Ngorofani,-1.22535789,36.91485,,,3
0200NGN,Flyover Pangani,-1.266488333,36.83463167,,,0
0200NHL,Towngate Chapel,-1.15470457,36.81256771,,,2
0200NYT,Nyati Drive,-1.221369,36.872925,,,3
0200OIC,Ruaraka Police Post/Baba Dogo Catho,-1.244187087,36.88379377,,,3
0200OTO,JCL Motors,-1.23544845,36.84368402,,,0
0200RAW,Kware/Kahawa Sukari,-1.1890769,36.93116426,,,3
0200RDS,Ridgeway Springs,-1.22895062,36.84054315,,,3
0200RER,Riverside,-1.243933439,36.88097477,,,3
0200RGC,Regional/ICIPE,-1.220023,36.894127,,,3
0200RIE,Riverside,-1.246434778,36.88011914,,,3
0200RIL,Kona Kwa Rail,-1.208219,36.922329,,,3
0200RKN,Kona,-1.225876,36.874215,,,3
0200RND,Runda Junction,-1.22171,36.83606,,,3
0200ROC,Rock City,-1.23795,36.84398,,,0
0200RST,Roasters,-1.233360171,36.87278867,,,3
0200RTI,Itara,-1.185209155,36.8388319,,,2
0200RUK,Ruaraka Academy,-1.214869,36.876151,,,3
0200SAK,Samaki,-1.243772507,36.8785125,,,3
0200SAN,SDA Ikinu,-1.102948665,36.79969311,,,2
0200SHK,Shark's Palace,-1.24067,36.84427,,,0
0200SHL,Shell,-1.235088,36.873169,,,3
0200SHP,Shell/Kariobangi Catholic Church,-1.256700754,36.87869489,,,3
0200SKU,Tuskys,-1.0402641,37.07185954,,,3
0200SPH,Super Highway,-1.164448857,36.95673108,,,3
0200SRA,Naivas Supermarket,-1.247506142,36.87264919,,,3
0200STD,Stadium,-1.221633554,36.890046,,,3
0200STM,Steam Drive,-1.222789,36.872219,,,3
0200STR,Kwa Ng'ethe/Five Star,-1.18981,36.83959,,,2
0200TDS,Seasons,-1.218752,36.902593,,,3
0200TFC,Perfection,-1.240324706,36.89570278,,,3
0200TKL,Total Kiambu,-1.175120205,36.82907671,,,2
0200TND,Thindigwa,-1.19987,36.83525,,,2
0200TSB,Booster,-1.159456014,36.82005644,,,2
0200TSO,Posta,-1.276704669,36.82708651,,,0
0200TSS,TSS Petrol Station/Blue Hut Hotel,-1.277,36.83091,,,0
0200UET,Equity,-1.218058347,36.89997339,,,3
0200URA,Githurai,-1.203685731,36.91733211,,,3
0200URD,Red Ruby,-1.270240545,36.81308001,,,0
0200WAN,Dawa Pharmaceuticals,-1.246853203,36.8750605,,,3
0200WJY,Wanderjoy,-1.23132,36.84252,,,3
0200WKU,Kwa Mafuta,-1.228705287,36.91972089,,,3
02016EA,36Stage,-1.261315674,36.88658595,,,3
0201AGH,Aga Khan Hospital,-1.268924,36.809952,,,0
0201AIK,Kariobangi Mwisho,-1.253018333,36.88480333,,,3
0201AIP,Aipcea,-1.11975,36.819057,,,2
0201AIS,AIC Lucky Summer,-1.240432,36.895398,,,3
0201ALP,Allsops,-1.245253086,36.86786413,,,3
0201ALS,Allsops,-1.244512796,36.86686635,,,3
0201AMC,Cinema,-1.250704855,36.90486789,,,3
0201ARI,Kwa Bridge,-1.121764183,37.00636268,,,3
0201ARS,Car Wash,-1.232335567,36.87308371,,,3
0201ASP,Allsops,-1.24517262,36.86789632,,,3
0201ATB,Kariobangi catholic church/ Kanisani,-1.257166667,36.879065,,,3
0201BHC,Beta  Health Care,-1.062916517,36.78296685,,,2
0201BPC,The Baptist Chapel,-1.241702,36.893618,,,3
0201BRA,Barua,-1.19333,36.83991,,,2
0201CAL,Caltexdn/Equity,-1.268018,36.833628,,,0
0201CIA,AIC Church,-1.256825656,36.89734161,,,3
0201CIT,Police Post,-1.2441549,36.88429534,,,3
0201CJU,Ruiru Road Junction,-1.148968667,36.9568947,,,3
0201CNA,Cabanas,-1.329994798,36.89034641,,,0
0201CON,Corner,-1.247130632,36.8743068,,,3
0201DAW,Naivas/Dawa Pharmacutical,-1.247043,36.873225,,,3
0201DBR,Ndumberi Factory,-1.140974,36.805712,,,2
0201DIA,KIE/Desai,-1.271711916,36.82795823,,,0
0201DNK,Danamac's Flats,-1.21821,36.900913,,,3
0201DNO,Rounda,-1.26219011,36.87874854,,,0
0201DUA,Ruiru Road Junction,-1.1490798,36.95702612,,,3
0201DWE,Weigh Bridge,-1.129483581,36.98738873,,,3
0201ECH,Dawa Pharmaceutical,-1.247130632,36.87301397,,,3
0201ENL,Hill stone,-1.252511667,36.880055,,,3
0201EQT,Equity,-1.217932105,36.89985752,,,3
0201EVR,Evergreen,-1.2106,36.83313,,,2
0201FM,FM,-1.269269586,36.84068531,,,0
0201GIT,Githurai,-1.203684,36.916758,,,3
0201GRD,Equity,-1.217937,36.899857,,,3
0201GRG,Garage,-1.231222,36.924549,,,3
0201GTC,Gathecha/KSC International Junction,-1.240786,36.887714,,,3
0201GTJ,Gathanji,-1.089753,36.782261,,,2
0201GTO,Githogoro,-1.2186,36.83579,,,3
0201HML,Roasters/Naivas,-1.233043671,36.87387228,,,3
0201HSM,House Of Faith Ministry,-1.240245,36.895997,,,3
0201IAH,Muthaiga,-1.260555518,36.84327364,,,0
0201IES,Desai,-1.27194795,36.82773024,,,0
0201IIR,Riverside,-1.249303222,36.87765419,,,3
0201IKN,Ikinu,-1.099779,36.795763,,,2
0201I/T,Kariobangi Market Stage/Soko,-1.255205601,36.87902749,,,3
0201JAM,Jamaica,-1.074943542,36.78059578,,,2
0201JNT,Gatitu,-1.043277383,37.07080007,,,3
0201KAI,Kwa Kairu,-1.142084,36.966911,,,3
0201KAM,Kanyama,-1.252580881,36.88219786,,,3
0201KBM,Kariobangi Market Stage/Soko,-1.255236268,36.87908113,,,3
0201KBO,Kimbo,-1.132586,36.974481,,,3
0201KCB,KCB Kiambu,-1.172811985,36.82988405,,,2
0201KCL,K1 Club,-1.268620491,36.81223512,,,0
0201KEE,KEMREF,-1.241980791,36.8933022,,,3
0201KEP,Kenya Power,-1.242862,36.89084,,,3
0201KFS,Kenya Forestry Service Station/CID,-1.250478029,36.84655666,,,0
0201KGM,Kiangima,-1.075928,36.786734,,,2
0201KIH,Kihunguro,-1.160286069,36.95838869,,,3
0201KJN,Kirigiti Junction,-1.17902,36.83742,,,2
0201KMT,Kamutiini,-1.229538,36.920874,,,3
0201KRK,Kariokor,-1.279431,36.833293,0.0,,0
0201KS2,KIST,-1.18345,36.83848,,,2
0201KSR,Kasarini/Paradise Lost,-1.20585,36.83201,,,2
0201KSS,Brentwood Hotel,-1.20461,36.83264,,,2
0201KSU,Kamindi Supermarket,-1.171696186,36.82808161,,,2
0201KWH,Bypass/Kwaheri Flyover,-1.21506,36.83495,,,3
0201MET,Bull & Bush,-1.217444,36.89776,,,3
0201MGN,2nd Mugumoini Street,-1.218296,36.873967,,,3
0201MJM,Maji Mazuri,-1.23198688,36.92629337,,,3
0201MLM,Kwa Mlima,-1.233215332,36.92902386,,,3
0201MML,Mwalimu,-1.269843578,36.83098912,,,0
0201MNO,Makutano,-1.064754,36.783189,,,2
0201MOS,Mosque,-1.24057,36.894865,,,3
0201MRT,Maternity,-1.223037,36.91183,,,3
0201MSH,Mushroom,-1.19582,36.83822,,,2
0201MSQ,Mosque,-1.252661,36.865157,,,0
0201MTR,TRM,-1.219793558,36.89088821,,,3
0201NAS,Naivas,-1.218873,36.895474,,,3
0201NBN,Baba Dogo Junction/Dawa,-1.247575879,36.874457,,,3
0201NEH,Neighbours,-1.2270087,36.87105596,,,3
0201NIO,Sokoni,-1.25513,36.87869,,,3
0201NTR,Naivas Ciata Mall/Ridgeways Mall,-1.22525,36.83883,,,3
0201NVS,Naivas,-1.247559786,36.87267065,,,3
0201NYT,Nyati Drive,-1.220956,36.873096,,,3
0201OER,Pioneer,-1.272505885,36.82773292,,,0
0201PME,Marie Stopes,-1.269189119,36.84839398,,,0
0201PNG,Pangani/Muthaiga Footbridge,-1.264039278,36.83783412,,,0
0201POS,Police Post,-1.121249,36.819359,,,2
0201PPS,Police Post,-1.219857,36.894257,,,3
0201RAK,Mpaka Road,-1.265068263,36.80462676,,,0
0201RDS,Ridgeway Springs/Total,-1.229122281,36.84055924,,,3
0201RET,St Margret,-1.207715,36.924788,,,3
0201REV,Drive In,-1.250063333,36.86227333,,,0
0201RGC,Regional Centre/ICIPE,-1.219975948,36.89407468,,,3
0201RIL,Kona Kwa Rail,-1.208181,36.922337,,,3
0201RKN,Kona,-1.225183,36.873912,,,3
0201RND,Runda Junction,-1.22181,36.8361,,,3
0201RNK,Kiamako Sunflower Primary School,-1.252865,36.87859167,,,3
0201ROC,Rock City,-1.2382,36.84398,,,0
0201RRP,Safari Park,-1.225190163,36.88523412,,,3
0201RSB,Roysambu,-1.218377352,36.8924278,,,3
0201RST,Roasters,-1.233597,36.872552,,,3
0201RUK,Ruaraka Academy,-1.214531,36.876177,,,3
0201RYB,Red Ruby,-1.270290255,36.81299043,,,0
0201RZA,Riziki Academy,-1.28067,36.838466,,,0
0201SDP,Pangani Police Post,-1.27023,36.83564,,,0
0201SHL,Shell,-1.23488903,36.87386155,,,3
0201SHP,Shell Petrol Station/Catholic Church,-1.256545186,36.87905967,,,3
0201SPH,Super Highway,-1.164459586,36.9567579,,,3
0201SSN,Seasons,-1.218747,36.90285,,,3
0201STM,Steam Drive,-1.22293,36.872273,,,3
0201SUN,Sunton,-1.228819,36.919796,,,3
0201TEH,Homeland/Garden City,-1.230849624,36.87760323,,,3
0201TIN,Kamutiini,-1.230447292,36.92289233,,,3
0201TIU,Equity,-1.278343333,36.83056667,0.0,,0
0201TJA,Timba Junior Academy,-1.241243,36.894187,,,3
0201TKS,Tuskys,-1.041316,37.071367,,,3
0201UCP,Dawa Pharmaceutical,-1.247148246,36.87301397,,,3
0201UGC,Muthaiga Golf Club,-1.257732242,36.84297949,,,0
0201UOA,Munyu Road,-1.284302205,36.82779998,,,0
0201URI,Kariobangi Junction,-1.252575517,36.87903821,,,3
0201VRS,Riverside,-1.243918866,36.88077092,,,3
0201WAA,Kawaa,-1.244587898,36.87559426,,,3
0201WJY,Wanderjoy,-1.23113,36.84225,,,3
0201WOA,Kwa DO,-1.219326854,36.90370649,,,3
0201YTU,Equity,-1.258245707,36.87878609,,,3
0201YUE,Survey,-1.248853333,36.86336333,,,0
0202LUT,Luthuli Avenue,-1.284831,36.826986,,,0
0202RSB,Roysambu Terminus,-1.217422485,36.89440727,,,3
0203SND,Sunton,-1.229503155,36.92081094,,,3
02107SA,Barraks/75,-1.311714381,36.92533046,,,0
0210ABI,Tiba,-1.240081787,36.89640284,,,3
0210ACO,Karura Close,-1.256085366,36.84340507,,,0
0210AEC,Faith Home Academy,-1.253224611,36.87857151,,,3
0210AFY,Fancy,-1.277269453,36.96974784,,,3
0210AIC,China,-1.293882251,36.94319129,,,3
0210AIE,Kwa Bridge,-1.249443412,36.87787414,,,3
0210AIK,Kasarini,-1.201480955,36.83447868,,,2
0210AIT,Tumaini,-1.280199945,36.96515858,,,3
0210AKC,KCA,-1.25305447,36.85928106,,,0
0210AKE,Keza,-1.285972059,36.95495546,,,3
0210ALS,Allsops,-1.245896816,36.86659813,,,3
0210AMC,Quickmart,-1.169282198,36.96969151,,,3
0210AMJ,Juja Mall,-1.118052006,37.01047182,,,3
0210ANI,Naivas,-1.247502297,36.87248826,,,3
0210ANR,Thingira,-1.1147933,36.81205273,,,2
0210ANT,Aviation,-1.319936514,36.90660059,,,0
0210APB,Bypass,-1.165457368,36.95721388,,,3
0210ARA,Barracks/75 Rounda,-1.313516825,36.92287892,,,0
0210ARG,Garage,-1.249185205,36.87806457,,,3
0210ARH,Car Wash,-1.21111545,36.9075796,,,3
0210ARI,Raia,-1.108012676,36.8063879,,,2
0210ARM,Taj Mall Roundabout,-1.32471621,36.89894557,,,0
0210AS3,36Stage,-1.261734098,36.88483715,,,3
0210ASR,Safari Park,-1.22595343,36.88503832,,,3
0210ASV,Naivas,-1.247506142,36.87250435,,,3
0210AUI,Utalii,-1.256094575,36.85605705,,,0
0210AWR,Kware,-1.189995736,36.93019062,,,3
0210AYA,Onyata,-1.267103881,36.98038548,,,3
0210BBD,Baba Dogo Terminal,-1.244305,36.887506,,,3
0210CAH,Pangani Girls' School,-1.270063519,36.83802724,,,0
0210CAK,KCA,-1.253113478,36.85937226,,,0
0210CID,KFS/CID,-1.25032,36.84657,,,0
0210CIJ,Northern Junction,-1.247555137,36.87098622,,,3
0210CKA,KCA,-1.253079772,36.85931861,,,0
0210CLM,Clay,-1.171357,36.948865,,,3
0210CLY,Clay Works,-1.172108,36.947546,,,3
0210CRH,Car Wash,-1.211124659,36.90780222,,,3
0210CRI,AIPCK Githunguri,-1.058234095,36.78208709,,,2
0210DBR,Ndumberi,-1.15149,36.805479,,,2
0210DGU,Ndarugu,-1.081380844,37.04282463,,,3
0210DIE,Weigh Bridge,-1.12953338,36.98971957,,,3
0210DLO,Homeland Inn,-1.230951548,36.87830865,,,3
0210DOE,Kenyatta Road,-1.125418872,37.00300187,,,3
0210DRV,Drive In,-1.249040365,36.86320782,,,0
0210EC/,Utawala Junction/ Benedicta,-1.278744668,36.96799904,,,3
0210EIW,Kwa Chief,-1.282864541,36.95997387,,,3
0210EKE,Kemsa Depot,-1.316538513,36.92023695,,,0
0210EKT,Kanyama,-1.25249505,36.88166142,,,3
0210ENE,Odeon,-1.282971829,36.82432383,0.0,0004ODN,0
0210EOS,Seasons,-1.218774319,36.90265775,,,3
0210EOV,Jehova Witness Ting'ang'a,-1.12778449,36.81349039,,,2
0210ERI,Reli,-1.206656813,36.9204247,,,3
0210ERV,Evergreen,-1.211371422,36.83338165,,,2
0210EXL,Lex,-1.247511506,36.87099695,,,3
0210FAR,Safari Park,-1.225801706,36.88538432,,,3
0210FBO,Balkan Sec. School/Fourways,-1.212370634,36.83383226,,,3
0210FIG,Fig Tree,-1.275653243,36.82331264,0.0,,0
0210FLY,Fly Over,-1.150335073,36.96210623,,,3
0210FNO,Ngorofani,-1.225275993,36.91494226,,,3
0210GAO,Mlango Kubwa,-1.26747787,36.84358478,,,0
0210GEN,Engen,-1.180842519,36.98763013,,,3
0210GIT,Githurai,-1.204336,36.916825,,,3
0210GNN,Pangani,-1.266170508,36.83512509,,,0
0210GPN,Shell/Pangani Footbridge,-1.264028549,36.83792531,,,0
0210GRG,Garage Stage,-1.279238,36.849785,,,0
0210HAS,Car Wash,-1.211269498,36.90749645,,,3
0210HAU,Kahawa Sukari,-1.188561916,36.93168998,,,3
0210HAW,Car Wash,-1.211352826,36.90758228,,,3
0210HER,Ha Andrew,-1.131444453,36.80510044,,,2
0210HFI,Kwa Ng'ethe/Fivestar,-1.189877719,36.83962315,,,2
0210HHE,PCEA Bishop Gathu,-1.092550993,36.78580999,,,2
0210HIP,Highpoint,-1.095312238,37.02895224,,,3
0210HLE,Shell,-1.281759471,36.96203381,,,3
0210HUN,Hunters Stage,-1.227159,36.917404,,,3
0210HUT,Githurai,-1.203691095,36.91734284,,,3
0210HWA,Kahawa,-1.19645834,36.92401886,,,3
0210HWD,Kahawa Wendani,-1.195381612,36.92504615,,,3
0210HWK,Wendani Bus Stop,-1.195385456,36.92515612,,,3
0210IEL,Homeland Inn,-1.231017441,36.87831134,,,3
0210IES,Desai,-1.27242422,36.82760525,,,0
0210IHW,Kwa Ahindi,-1.17300126,36.82666808,,,2
0210IIA,Utalii,-1.25646624,36.85562253,,,0
0210IJI,Jikoni's,-1.230232716,36.8412137,,,3
0210IKS,Aga Khan hospital,-1.269070745,36.81020093,,,0
0210ILA,Utalii,-1.256112224,36.85542941,,,0
0210IMT,Mitikenda,-1.184324026,36.99306428,,,3
0210INA,Pangani Police Post,-1.270315647,36.83555961,,,0
0210IRI,Maji Mazuri,-1.231949329,36.92613244,,,3
0210ISD,Desai,-1.271785498,36.82840884,,,0
0210ITI,Utalii,-1.256405711,36.85563862,,,0
0210IVN,Drive In,-1.248483986,36.8636021,,,0
0210IYU,Super Highway,-1.165175914,36.95830822,,,3
0210JKT,JKUAT,-1.106981,37.015873,,,3
0210JTS,St. Joseph,-1.241111755,36.98976517,,,3
0210KAD,Kwa Ahindi,-1.173949242,36.82804942,,,2
0210KAF,Family Bank,-1.280661285,36.96424663,,,3
0210KAH,Kahawa Wendani,-1.196565628,36.92410469,,,3
0210KBM,Kariobangi Market Stage,-1.255533,36.878748,,,3
0210KBO,Kimbo,-1.13317,36.974441,,,3
0210KCA,KCA/Survey,-1.253374815,36.85901821,,,0
0210KDO,Kwa DO/Kiambu-Limuru Junction,-1.17498,36.83448,,,2
0210KEB,Kobe,-1.226735115,36.99036598,,,3
0210KJA,Guru Nanak,-1.269973844,36.83283716,,,0
0210KLI,Old Kiambu,-1.172275543,36.8265152,,,2
0210KPO,Kiambu Mall/Posta,-1.164979935,36.82385445,,,2
0210KRB,Karambe,-1.266978979,36.84567153,,,0
0210KU.,KU,-1.182017326,36.93785906,,,3
0210KWD,Kwa Dogi,-1.15693,36.932686,,,3
0210KYR,Kwa Roy,-1.17460674,36.97780788,,,3
0210KYS,Tuskys,-1.317770809,36.918464,,,0
0210LGC,Grafins College,-1.266406417,36.80548024,,,0
0210LH',Overcomer's Chapel,-1.158426046,36.81864023,,,2
0210LOA,Allsops,-1.245651573,36.86668128,,,3
0210LSL,Allsops,-1.245678395,36.8671748,,,3
0210LUI,Muslim Road,-1.275686949,36.83133513,,,0
0210MBL,Membley,-1.156222,36.930358,,,3
0210MET,Metro,-1.217658,36.898562,,,3
0210MF,FM,-1.269414425,36.84067726,,,0
0210MGC,Muthaiga Golf Club Stage,-1.258900166,36.84252262,,,0
0210MIN,Amani,-1.281119585,36.96332395,,,3
0210MNG,Mang'u,-1.075546,37.046508,,,3
0210MQT,Quickmart,-1.20231244,36.83407098,,,2
0210MSL,muthaiga Golf Club Stage,-1.258874863,36.8425414,,,0
0210MTG,Muthaiga,-1.260445118,36.84361696,,,0
0210NAK,Kwa Kanisa,-1.0569942,37.05579579,,,3
0210NAM,Transami,-1.327173114,36.89490616,,,0
0210NAS,Naivas,-1.218634,36.895833,,,3
0210NCY,Centy Club,-1.234148741,36.99011922,,,3
0210NGE,Evergreen,-1.209211081,36.83307856,,,2
0210NGR,Ngara Stage,-1.274687648,36.82440698,0.0,0003NGR,0
0210NID,Drive In,-1.24895069,36.86322659,,,0
0210NIG,Kirigu-ini,-1.148095608,36.80741787,,,2
0210NIM,Kiambu Terminus,-1.168831587,36.8265447,,,2
0210NIR,Drive In,-1.248864895,36.86276793,,,0
0210NRS,Kariobangi Mwisho,-1.253065234,36.88485861,,,3
0210NTR,Naivas Ciata Mall/Ridgeways Mall,-1.22544,36.839,,,3
0210NUR,Guru Nanak,-1.269232035,36.83247507,,,0
0210NWK,Kahawa Wendani,-1.196646094,36.92390084,,,3
0210OIK,Mihango Kayole Junction,-1.287837356,36.95198625,,,3
0210OLT,Toll,-1.130851507,36.98221207,,,3
0210ONR,Corner,-1.185450554,36.99479163,,,3
0210OOI,Gititu Coffee Factory,-1.084299088,36.78218365,,,2
0210OON,Njomoko,-1.044895112,37.06069887,,,3
0210OUN,KSC International/Junction,-1.240866512,36.88772589,,,3
0210OUS,Githunguri Township,-1.056968093,36.78067088,,,2
0210OUU,Kihunguro,-1.16004467,36.95893586,,,3
0210-P0,Triple-0,-1.272721946,36.97467506,,,3
0210PA.,AP,-1.285349786,36.95592105,,,3
0210PAS,Safari Park,-1.225807071,36.88544065,,,3
0210PMH,Pumwani Hospital,-1.280534863,36.84457719,,,0
0210PMS,Pumwani Stage,-1.284349,36.84316,,,0
0210PNG,Pangani/Muthaiga Footbridge,-1.263926625,36.83806479,,,0
0210PPS,Police Post,-1.219433,36.903631,,,3
0210PRS,Prison,-1.151878,36.928673,,,3
0210PSK,Bypass/Kwaheri,-1.215137243,36.8350178,,,3
0210PYS,Bypass,-1.264157295,36.98298991,,,3
0210RAO,Astro,-1.290562268,36.94753446,,,3
0210RAT,Roasters,-1.234867573,36.8739152,,,3
0210RBA,Barua,-1.193017423,36.83994234,,,2
0210RBU,Barua,-1.194019049,36.83979213,,,2
0210RIH,Chandaria,-1.244239211,36.88502491,,,3
0210RMT,TRM,-1.22023344,36.8915534,,,3
0210RNA,Kasarini,-1.205921173,36.83200836,,,2
0210RND,Rounder Terminal,-1.262344122,36.87873781,,,0
0210RSB,Roysambu Footbridge,-1.217229366,36.89452529,,,3
0210RSC,KCA University,-1.252357131,36.85940981,,,0
0210RSI,Kasarini,-1.204393834,36.8327567,,,2
0210RV2,Riverside 2,-1.249469519,36.87784195,,,3
0210RYS,Roysambu,-1.220431924,36.89103305,,,3
0210SAE,Kastemil,-1.212594509,36.90338731,,,3
0210SAI,Kamakis,-1.178672969,36.98424518,,,3
0210SAO,Roysambu,-1.217191815,36.89447701,,,3
0210SAP,Allsops,-1.245705217,36.86705947,,,3
0210SAR,Roasters,-1.233923435,36.87461257,,,3
0210SBA,Airbase,-1.315276355,36.92168266,,,0
0210SEW,Sewage,-1.098943949,37.02455878,,,3
0210SHA,Kahawa Sukari,-1.188910604,36.93129301,,,3
0210SKA,Samaki,-1.246261597,36.8779707,,,3
0210SMB,Supermambo,-1.27024,36.8327,,,0
0210SMW,Kwa Mlima,-1.233075857,36.92863226,,,3
0210SRA,Kasarani Primary,-1.220422625,36.90459323,,,3
0210S/T,19/60 Stage,-1.285348302,36.83226585,,,0
0210STD,Stadium,-1.221149,36.890238,,,3
0210SUN,Sunton,-1.229605079,36.92096651,,,3
0210SUR,Utalii,-1.256711483,36.85553133,,,0
0210TAE,Roasters,-1.234744191,36.87396348,,,3
0210TDL,Parklands Sports Club,-1.269453406,36.81245399,,,0
0210TEE,Eastleigh Terminal,-1.272252202,36.84884191,,,0
0210TER,St. Teresa,-1.266657114,36.84738278,,,0
0210TGA,Ting'ang'a,-1.128432,36.811953,,,2
0210TIB,Kiambu Terminus,-1.167781592,36.8246913,,,2
0210TIG,Ruui/Kirigiti,-1.178816289,36.83735132,,,2
0210TMR,TRM/Roysambu,-1.220374435,36.89108938,,,3
0210TRT,Torrents,-1.160577,36.944155,,,3
0210TUH,Muthaiga,-1.260060436,36.84340775,,,0
0210TYE,Equity,-1.218060851,36.90011233,,,3
0210UIK,Ikinu Primary,-1.101434469,36.79791212,,,2
0210UKO,Kihunguro,-1.159826249,36.95911556,,,3
0210/US,TRM/Roysambu,-1.220469475,36.89088821,,,3
0210USG,GSU,-1.289645165,36.94906801,,,3
0210UWT,Muthurwa,-1.286167502,36.83222026,,,0
0210UYU,Muyuyu Avenue,-1.271549463,36.84869707,,,0
0210VIS,Naivas,-1.24751839,36.87301129,,,3
0210VNA,Naivas,-1.218747497,36.89567864,,,3
0210WDH,Kahawa Wendani,-1.196597815,36.9239223,,,3
0210WOK,Kwa DO,-1.219319522,36.9036094,,,3
0210WPE,Dawa Pharmaceuticals,-1.247034073,36.87503099,,,3
0210WTH,Witeithie,-1.068200469,37.05117166,,,3
0210YPS,Bypass,-1.16525504,36.95735604,,,3
0210ZMM,Maji Mazuri,-1.231949329,36.92613244,,,3
0211AAA,Kahawa Sukari,-1.188400984,36.93115354,,,3
0211AAJ,Juja Mall,-1.118481159,37.00953841,,,3
0211AAW,Kahawa,-1.195911169,36.92383111,,,3
0211ACB,Barracks,-1.311664581,36.92534387,,,0
0211ACD,Baba Dogo Catholic Church,-1.244142652,36.88469231,,,3
0211ADI,Kahawa Wendani,-1.196324229,36.92342877,,,3
0211AEC,Overcomers Chapel,-1.158051967,36.81746006,,,2
0211AEP,Savanna Petrol,-1.058059215,36.78192616,,,2
0211AFY,Fancy,-1.275385022,36.9715637,,,3
0211AGA,Pangani Police,-1.270322531,36.8352887,,,0
0211AGC,Baba Dogo Junction/Dawa,-1.24715209,36.87443554,,,3
0211AHN,China,-1.292921305,36.94411397,,,3
0211AIC,Quickmart,-1.202403635,36.83386177,,,2
0211AIK,Kamakis,-1.170865417,36.97226644,,,3
0211AKW,Kwa DO/Kiambu Limuru Junction,-1.175043583,36.83417559,,,2
0211ALN,Naivas Ciata Mall/Ridgeways Mall,-1.225567192,36.83885604,,,3
0211ALS,Allsops,-1.244064,36.867212,,,3
0211AMN,Amani,-1.281065941,36.96338832,,,3
0211'AN,Jehovah's Witness Ting'ang'a,-1.126753092,36.81388736,,,2
0211ANN,Pangani,-1.263819337,36.83759272,,,0
0211ANP,Pangani,-1.263728142,36.83758199,,,0
0211ANS,St. Francis,-1.226145029,36.91620827,,,3
0211.AP,AP,-1.285454035,36.95582449,,,3
0211ARS,Safari Park,-1.225254536,36.88513756,,,3
0211ASP,Allsops,-1.243799329,36.86749399,,,3
0211AUR,Guru Nanak,-1.26960218,36.83204055,,,0
0211AVA,Naivas,-1.247184277,36.87257409,,,3
0211AWA,Kahawa,-1.196470588,36.92339391,,,3
0211BHC,Baba Dogo Catholic Church,-1.2442047,36.88469768,,,3
0211BLA,Total Kiambu,-1.174985289,36.82890773,,,2
0211BLR,Balkan Sec School/Fourways,-1.212254226,36.833902,,,3
0211B/O,Kobil/K1,-1.267567098,36.81204951,,,0
0211B/W,Bypass/Kwaheri,-1.215396255,36.8349722,,,3
0211BYP,Bypass,-1.164175272,36.95703685,,,3
0211CID,CID,-1.2503,36.84658,,,0
0211CKS,Clay Works,-1.171563595,36.94760889,,,3
0211CLA,Utawala Junction/ Benedicta,-1.278753877,36.96796417,,,3
0211CTT,Muthithi Tausi Junction,-1.266612232,36.80779016,,,0
0211CYE,Garden City,-1.230822802,36.87764347,,,3
0211DBR,Ndumberi,-1.15155,36.805526,,,2
0211DEV,Riverside,-1.249748468,36.87845349,,,3
0211DRN,Drive In,-1.24788,36.864343,,,3
0211DRV,Drive In,-1.248664856,36.86288595,,,0
0211EAR,Homeland/Garden City,-1.230887175,36.87754691,,,3
0211EIN,Drive In,-1.249138445,36.86252922,,,0
0211EKO,Kemsa Depot,-1.316311597,36.92052126,,,0
0211END,Mitikenda,-1.180837154,36.98749065,,,3
0211ERC,Corner,-1.185606837,36.99496865,,,3
0211EVE,Evergreen,-1.209570497,36.8330732,,,2
0211FLY,Ruiru Fly Over,-1.14967525,36.96188629,,,3
0211FNT,Southfield/Nakumatt,-1.328256726,36.89293742,,,0
0211G'F,Full gospel Ting'ang'a,-1.12972784,36.80922031,,,2
0211GIT,Githurai,-1.203038,36.917428,,,3
0211GNK,Guru Nanak,-1.269130111,36.83266282,,,0
0211GRF,Graffins College,-1.265996,36.805414,,,0
0211HIA,Kwa Chief,-1.282912821,36.95994705,,,3
0211HIP,High Point,-1.09487772,37.02866256,,,3
0211HNE,Ha Andrew,-1.131186961,36.80484295,,,2
0211HNT,Hunters,-1.227542,36.917967,,,3
0211HNU,Mihang'o/ Kayole Junction,-1.28780365,36.95199966,,,3
0211HWS,Car Wash Footbridge,-1.210695505,36.90732479,,,3
0211IAU,Pangani/Muthaiga Footbridge,-1.263679862,36.8376866,,,0
0211IBR,Preblo Ikinu Sch,-1.096683025,36.79274082,,,2
0211IEV,Drive In,-1.24950707,36.86202228,,,0
0211IGB,Pangani/Muthaiga Footbridge,-1.264103651,36.83778852,,,0
0211IGH,Githurai,-1.203705668,36.91677153,,,3
0211IHH,Shirika House,-1.27296567,36.81636035,,,0
0211IIU,Ruui/Kirigiti,-1.178918213,36.837354,,,2
0211INS,Kiambu Bus Terminus,-1.168806285,36.82605654,,,2
0211INT,Baba Dogo Terminal,-1.24420774,36.88744426,,,3
0211IRA,Raia,-1.107497691,36.80613041,,,2
0211IUS,Bypass Ruai,-1.26475811,36.98200822,,,3
0211IVE,Drive In,-1.249149173,36.86251581,,,0
0211IVO,Jua Kali,-1.247538328,36.90836012,,,3
0211I/Y,NYS/Utalii,-1.25623557,36.85523629,,,0
0211JKT,JKUAT Main Gate Stage,-1.105189,37.017042,,,3
0211JUJ,Juja Stage,-1.106865,37.015152,,,3
0211KAH,Kahawa Wendani,-1.196731925,36.92301571,,,3
0211KAZ,Keza,-1.286093116,36.95484281,,,3
0211KCA,KCA/Survey,-1.252175,36.859441,,,0
0211KDO,Kwa DO/Kiambu Limuru Junction,-1.174947023,36.83432579,,,2
0211KEI,KIE,-1.269936293,36.83089525,,,0
0211KEO,Kobe,-1.226333499,36.99009776,,,3
0211KIP,Safari Park,-1.225200891,36.88522339,,,3
0211KIU,Old Kiambu,-1.172367453,36.82637572,,,2
0211KMJ,OTC,-1.285344,36.832273,,,0
0211KNI,Kariobangi Junction,-1.253219962,36.87896848,,,3
0211KPO,Kiambuu Posta,-1.1669,36.825087,,,2
0211KRD,Kenyatta Road Stage,-1.12417,37.003518,,,3
0211KRE,Kware,-1.189211,36.930236,,,3
0211KRM,Karambe,-1.266877055,36.84573054,,,0
0211KST,KIST,-1.18345499,36.83846712,,,2
0211K.U,KU,-1.182231903,36.93697929,,,3
0211LIB,Kobil,-1.327183843,36.89461648,,,0
0211LIT,Tripple-O,-1.273190975,36.97403669,,,3
0211LMU,Junction/Kiambu Police/Kwa DO,-1.173376769,36.83172137,,,2
0211LND,Parklands Sports Club,-1.269509017,36.81246793,,,0
0211LOA,Taj Mall Roundabout,-1.324394345,36.89912796,,,0
0211LTI,Utalii,-1.256214148,36.8559283,,,0
0211MBS,Muthaiga Bus Stage,-1.25919,36.84238,,,0
0211MEV,Covenant Ndumberi,-1.152816295,36.80819035,,,2
0211MNG,Mang'u,-1.07488,37.046347,,,3
0211MOO,Njomoko,-1.044001579,37.06036091,,,3
0211MRT,TRM,-1.219831109,36.89094722,,,3
0211MTG,Muthaiga,-1.259818,36.843621,,,0
0211MUU,Kiambu Terminus,-1.167796969,36.82472348,,,2
0211NAS,Naivas,-1.218629,36.895807,,,3
0211NDA,Dawanol,-1.246815652,36.87492102,,,3
0211NDK,Kitindo,-1.326422095,36.89587176,,,0
0211NGE,Engen,-1.174363017,36.97765231,,,3
0211NGI,Pangani/Muthaiga Footbridge,-1.26378715,36.83757663,,,0
0211NGR,Ngara,-1.274601817,36.82399929,0.0,0003NGR,0
0211NIC,Garden City,-1.230581403,36.8779546,,,3
0211NIJ,Jikoni's,-1.229967534,36.84096158,,,3
0211NIV,Aviation,-1.319287419,36.90747499,,,0
0211NNO,Ngorofani,-1.22604847,36.91603392,,,3
0211NOR,Ngorofani,-1.225318909,36.91504419,,,3
0211NPA,Pangani,-1.263776422,36.83761418,,,0
0211NRD,Redeemed Ngemwa,-1.11608076,36.8130827,,,2
0211NUK,Guru Nanak,-1.269013613,36.83247238,,,0
0211NYS,NYS/Utalii,-1.256260872,36.85515583,,,0
0211ODO,Don Bosco,-1.146979808,36.80827618,,,2
0211/OE,KIE/Pioneer/Desai,-1.271642178,36.82829618,,,0
0211OEO,Soko Mawe,-1.255177259,36.87903285,,,3
0211OIN,Ngoingwa,-1.038118333,37.06060499,,,3
0211OOD,Roysambu Footbridge,-1.21691975,36.89422488,,,3
0211OOU,Roysambu Footbridge,-1.21724546,36.89367771,,,3
0211OSL,Allsops,-1.244326562,36.86704874,,,3
0211OTL,Toll,-1.130309701,36.98234618,,,3
0211PCA,PCEA Bishop Gathu,-1.092648982,36.78733349,,,2
0211PIO,KIE/Pioneer/Desai,-1.271544099,36.82832837,,,0
0211POA,Allsops,-1.244544983,36.86672688,,,3
0211POL,Allsops,-1.24568224,36.86744839,,,3
0211PSE,Ruaraka Police Post,-1.244094372,36.88374281,,,3
0211RIA,Sai Raj,-1.243818462,36.88071191,,,3
0211RIT,Gititu Coffee Factory,-1.084237575,36.78226948,,,2
0211RMT,TRM,-1.219841838,36.89090967,,,3
0211RMU,Kiambu Nrb,-1.171676248,36.82795554,,,2
0211RNE,Evergreen,-1.210083961,36.83311343,,,2
0211RSB,Roysambu,-1.219815016,36.8909204,,,3
0211RUI,Ruiru,-1.147707,36.959362,,,3
0211S5K,Barracks/75 Rounda,-1.313397288,36.92292988,,,0
0211SAA,Safari Park/USIU,-1.224975586,36.88545406,,,3
0211SEB,Airbase,-1.315467954,36.92149222,,,0
0211SEO,St. Joseph,-1.255831718,36.98582768,,,3
0211SEW,Sewage Stage,-1.098477244,37.02424765,,,3
0211SHM,Mwisho,-1.244219273,36.88615143,,,3
0211SHP,Shark's Palace,-1.2406,36.84422,,,0
0211SHR,Car Wash,-1.210552186,36.90817505,,,3
0211SLR,Astrol,-1.290818453,36.94725752,,,3
0211SMC,Lucky Summer Junction,-1.240864992,36.88884437,,,3
0211SOW,Clay Works,-1.171363592,36.94795489,,,3
0211SRK,Tusker/Ronald Ngala,-1.285250187,36.8288219,0.0,0011TUS,0
0211SSN,Seasons,-1.218672,36.902619,,,3
0211STD,Stadium,-1.221553087,36.88935935,,,3
0211STM,Stima,-1.223906,36.908177,,,3
0211SYT,Tuskys,-1.317865849,36.91828966,,,0
0211TAI,Muthaiga,-1.25982821,36.84362769,,,0
0211TAM,Transami,-1.325381398,36.89756155,,,0
0211TGA,Ting'ang'a,-1.128688,36.811402,,,2
0211TIG,Kist Stage,-1.184202164,36.83860928,,,2
0211TIR,Itara,-1.185085773,36.83874607,,,2
0211TMQ,Quickmart,-1.167538762,36.96558774,,,3
0211TND,Thindigwa,-1.2003,36.83501,,,2
0211TOA,Onyatta,-1.252666712,36.98690057,,,3
0211TOR,JCL Motors,-1.235459179,36.84377521,,,0
0211UNN,Kwa DO/Kiambu-Limuru Junction,-1.175178409,36.83390737,,,2
0211UNR,Ndarugu,-1.082378626,37.04124212,,,3
0211USG,GSU,-1.289595366,36.94918871,,,3
0211USM,Museum,-1.272559404,36.81514263,,,0
0211UUN,Kihunguro,-1.160512894,36.95837528,,,3
0211VIN,Kwa Ng'ethe/Five Star,-1.189941287,36.83972239,,,2
0211VSI,Naivas,-1.247141361,36.87245607,,,3
0211VSR,KCA University,-1.253401667,36.85903167,,,0
0211WAK,Kware,-1.189207166,36.93022817,,,3
0211WKN,Kahawa Wendani,-1.196332454,36.92354679,,,3
0211WOK,Kwa Roy,-1.168955684,36.96902633,,,3
0211WSR,Car Wash,-1.211076379,36.90636992,,,3
0211WTH,Witethie,-1.068227291,37.05049038,,,3
0211XLE,Lex,-1.247168183,36.87139392,,,3
0211YMY,Muyuyu Avenue,-1.271511912,36.84884727,,,0
0211YTA,SDA Ikinu,-1.102636099,36.7995429,,,2
0211YTC,Centy Club,-1.233944893,36.98972225,,,3
0212APT,Allsops,-1.245156527,36.86778367,,0013ALS,3
0212BST,Bus Station,-1.287186742,36.83025956,0.0,0006BSS,0
0212DDT,OTC,-1.284877,36.831024,0.0,0010OTC,0
0212GBT,Gikomba,-1.284134,36.840596,,,0
0212GRD,OTC,-1.28614068,36.83066726,0.0,0010OTC,0
0212GTP,Githurai,-1.205374,36.918576,,,3
0212KRT,OTC,-1.284054,36.831179,0.0,0010OTC,0
0212KUS,Odeon,-1.282739639,36.82445526,0.0,0004ODN,0
0212NGS,Bus Terminal,-1.286972165,36.82940125,0.0,0006BSS,0
0212RSY,Roysambu,-1.220458746,36.89239025,,,3
0212RUS,Ruaka Stage,-1.207161,36.785845,,,2
0212SNT,Odeon,-1.282830834,36.82492197,0.0,0004ODN,0
0212TKT,Town Terminal,-1.284149,36.827805,,,0
0213BDT,Baba Dogo Terminal,-1.244217,36.887409,,,3
0213DRD,Ndumberi,-1.151558,36.805577,,,2
0213GGD,Githunguri Terminal,-1.056368,36.77893,,,2
0213GHD,Githurai,-1.204341,36.916884,,,3
0213KHO,Kiambu Hospital,-1.170494556,36.83054924,,,2
0213LUD,Lucky Summer Terminal,-1.239762,36.897502,,,3
0213MAT,Mathare North Terminal,-1.252119,36.867298,,,0
0213MKU,KU,-1.181746,36.937403,,,3
0213MRY,Ruiru,-1.147668958,36.95931673,,,3
0213NGB,Ngumba Terminal,-1.233753,36.884501,,,3
0213PGG,Proggie,-1.209074,36.928213,,,3
0213RNS,Rounda,-1.262183189,36.87871099,,,0
0213STG,Mwiki,-1.233935,36.930523,,,3
0213TKD,Thika Town,-1.035427,37.076427,,,3
0213TMA,Kiambu Bus Terminus,-1.168987155,36.82630062,,,2
0213WTD,Westlands Terminal,-1.262242,36.803652,,,0
0300AHE,Phase 3A Ruti,-1.266217232,36.91043615,,,3
0300AIA,AIC Ziwani,-1.279698014,36.8373996,,,0
0300AOK,Chokaa,-1.249862641,36.9510904,,,3
0300AOU,Hannah Court,-1.257162094,36.90417051,,,3
0300AYM,MYSA,-1.260761619,36.9099775,,,3
0300BAS,Base/Moi Forces Secondary School,-1.262131,36.86737,,,0
0300BCM,Eastleigh,-1.272295117,36.8490082,,,0
0300BPS,BP/Dandora Inn/Shell,-1.254669,36.894599,,,3
0300DSC,Dandora Secondary School,-1.251148582,36.89890265,,,3
0300E2S,Sector 2,-1.267547607,36.91185236,,,3
0300ENG,Majengo,-1.283915967,36.84353918,,,0
0300EQT,Equity Ngara,-1.278382,36.830223,0.0,,0
0300FM,FM,-1.269350052,36.8405807,,,0
0300FTY,Stage 41/Cinema,-1.249061823,36.90123081,,,3
0300GER,Gertrudes,-1.26675,36.911144,,,3
0300GHT,Gate 8,-1.26878,36.912987,,,3
0300IDA,Chai Road,-1.269889354,36.83874607,,,0
0300JAS,Junction Auto Spares,-1.259533167,36.87423706,,,0
0300KAR,Kariokor DC/Starehe,-1.277820468,36.83493197,,,0
0300KRE,Kariokor Estate,-1.278406,36.835811,,,0
0300KRG,Kariobangi Terminal,-1.2554,36.878468,,,3
0300LSE,Mowlem Heights,-1.254630089,36.91026449,,,3
0300MAA,Mamba,-1.269071102,36.84166968,,,0
0300MAR,Imara Primary,-1.271367073,36.91913724,,,3
0300MF,FM,-1.269394487,36.84032589,,,0
0300MIA,Masimba,-1.278238893,36.90805167,,,0
0300MLG,Mlango Kubwa,-1.267418861,36.84371352,,,0
0300MSB,Maili Saba,-1.254447,36.911404,,,3
0300MUT,36 Stage/Mutarakwa Road,-1.26148,36.886445,,,3
0300NFI,Infill B,-1.265809536,36.90701365,,,3
0300NGE,New Ngara Estate,-1.27975,36.831313,,,0
0300NME,Stage 41/Cinema,-1.248333692,36.90292597,,,3
0300NRG,Nigeria,-1.266320676,36.84835106,,,0
0300OBI,Kiboro,-1.266068548,36.85360283,,,0
0300OLE,Ole Suyean Guest Hs,-1.257796,36.911965,,,3
0300OPE,Mathare Worship/OiLibya,-1.265932918,36.85148656,,,0
0300PST,Posta,-1.276744,36.827354,,,0
0300R0D,Rounda,-1.264304,36.908472,,,3
0300RND,Rounda,-1.262510419,36.87836766,,,0
0300SAU,Junction Autospares,-1.26065585,36.87414587,,,0
0300UIH,Huruma Baptist,-1.257554412,36.87450528,,,0
0300UJT,Koma Junction,-1.265444756,36.90466136,,,3
0300UNE,Tushauriane,-1.266433364,36.91608489,,,3
0300ZII,Riziki Academy,-1.280770898,36.83852881,,,0
0300ZIN,Ziwani,-1.27959913,36.83720112,,,0
0300ZWN,Ziwani,-1.279070377,36.8366003,,,0
03014HM,K Mall/Phase 4,-1.266399622,36.9055599,,,3
0301ACC,AIC Church,-1.256619,36.89799,,,3
0301AIC,AIC Church,-1.256840229,36.89734697,,,3
0301AIZ,AIC Ziwani,-1.2796,36.837297,,,0
0301ALB,Amana/Jay Community,-1.266201138,36.84903502,,,0
0301ASN,Nasra,-1.278496385,36.89960808,,,0
0301ASP,Posta,-1.246273756,36.9058013,,,3
0301AUN,Dunia,-1.254611491,36.89359188,,,3
0301AWB,Kwa Mbao,-1.261723369,36.88488275,,,3
0301BAS,Base/Moi Forces Secondary School,-1.261668205,36.87157631,,,0
0301BHS,BH,-1.26582,36.857434,,,0
0301EGG,Garage,-1.272053719,36.88151121,,,0
0301FLT,Flats,-1.261775494,36.87243462,,,0
0301FM,FM,-1.269270301,36.84083819,,,0
0301GEE,Garage Stage,-1.279173821,36.85001403,,,0
0301ICH,Kwa Chief,-1.262082785,36.8673116,,,0
0301IDB,Bridge,-1.271688938,36.88144416,,,0
0301III,AIC Ziwani,-1.279724836,36.83740765,,,0
0301IRA,Kariokor Estate,-1.278324723,36.8358171,,,0
0301JUN,Saika Junction,-1.259587,36.912356,,,3
0301KDC,Kariokor DC/Starehe,-1.277831197,36.83524847,,,0
0301KMB,Karambe,-1.26688242,36.84544086,,,0
0301LJH,Shujaa Mall,-1.280910373,36.90560013,,,0
0301LLS,Danmills,-1.256904602,36.90488935,,,3
0301MAP,Mathare Worship/OiLibya,-1.265889,36.85133,,,0
0301MBK,Karambe,-1.26688242,36.84569836,,,0
0301MBP,Mamba,-1.268920898,36.84192181,,,0
0301MF,FM,-1.26927495,36.84076846,,,0
0301MJA,Meja,-1.26383695,36.86103255,,,0
0301MLG,Mlango Kubwa,-1.267348,36.843678,,,0
0301MOH,Dandora Secondary School,-1.251423597,36.89833403,,,3
0301MSB,Maili Saba,-1.254436,36.911444,,,3
0301MTS,Mother Teresa Road,-1.257648,36.874272,,,0
0301MYA,MYSA,-1.26052022,36.9099775,,,3
0301NGE,New Ngara Estate,-1.27906,36.830823,,,0
0301NUN,Junction,-1.257394284,36.92254096,,,3
0301OIO,Motito,-1.2532382,36.89702511,,,3
0301OSK,Rocks,-1.272890568,36.91107184,,,3
0301PST,Posta,-1.276317,36.826705,,,0
0301RDR,Rounder,-1.262059808,36.87932253,,,0
0301ROD,Rounda,-1.264495254,36.90829575,,,3
0301/RR,Garrisa/Eastleigh,-1.271164655,36.84863806,,,0
0301SNT,St. Teresa,-1.266469359,36.84768856,,,0
0301.ST,St.,-1.250114769,36.95165366,,,3
0301TAO,Total,-1.269822121,36.88099623,,,0
0301TOT,Total/Equity,-1.277900934,36.82998598,,,0
0301TTS,St. Teresa,-1.26646015,36.84768319,,,0
0301TUJ,Jay Community,-1.26619041,36.84930593,,,0
0301URE,Slaughter,-1.254615515,36.93104893,,,3
0301WAI,Ziwani,-1.278979182,36.83655739,,,0
0301WTE,Twisters,-1.256723732,36.92509979,,,3
0301YAM,Mayaka,-1.266753674,36.88020498,,,0
0302RND,Rounda,-1.262419224,36.87848568,,,0
0303GKM,Gikomba Market,-1.284048557,36.84055388,,,0
0303KND,Kanisani/Komarocks Phase 2,-1.26901,36.91362,,,3
0303KRG,Kariobangi Terminal,-1.255571,36.878086,,,3
0303KST,Kariobangi Terminal,-1.255300641,36.87857151,,,3
0303PGT,Pangani Terminal,-1.265042424,36.83852613,,,0
03106SE,36 Stage/Mutarawka Rd,-1.261405349,36.886307,,,3
0310AAA,Garrissa Road,-1.273298264,36.84901357,,,0
0310ACC,AIC,-1.256659,36.897995,,,3
0310ADA,Adam,-1.252770156,36.95882589,,,3
0310AE.,St. Teresa,-1.266748309,36.84679806,,,0
0310AEA,Karambe,-1.266937584,36.84578151,,,0
0310AMB,Mamba,-1.269012809,36.84180379,,,0
0310ANS,Naivas,-1.28005743,36.90106988,,,0
0310BAO,Kwa Mbao,-1.261877,36.883988,,,3
0310BH,BH,-1.265987277,36.8577683,,,0
0310CHF,Kwa Chief,-1.262392,36.866339,,,0
0310DUN,Dunia,-1.255699,36.893,,,3
0310EAS,St Teresa,-1.266946793,36.84782267,,,0
0310ENA,Jestan,-1.24669075,36.90515757,,,3
0310EQT,Equity,-1.252438,36.897528,,,3
0310FLT,Flats,-1.261518002,36.86983287,,,0
0310FRC,Moi Airforces Stage,-1.265825629,36.85876608,,,0
0310GEG,Garage,-1.279392242,36.84970289,,,0
0310GTR,Gate 3A,-1.266197,36.910637,,,3
0310HAA,Johnsaga,-1.262124896,36.87444091,,,0
0310IES,Seniors,-1.260500282,36.88973218,,,3
0310IKE,KIE,-1.273676633,36.8256011,,,0
0310IKK,Kariokor,-1.279526353,36.8335399,0.0,,0
0310JAK,Koja,-1.281126469,36.82275742,0.0,0002KOJ,0
0310JAY,Jay Community,-1.266222596,36.84930325,,,0
0310JMT,Umoja 2 Market,-1.27974093,36.89740598,,,0
0310JNH,Johnsaga,-1.262129545,36.87400639,,,0
0310JST,Johnsaga,-1.26190424,36.8740654,,,0
0310JUN,Saika Junction,-1.259552,36.912367,,,3
0310LBW,Mathare Worship/OiLibya,-1.265927553,36.85128272,,,0
0310LMH,Shujaa mall,-1.28102839,36.90559745,,,0
0310MBO,Kwa Mbao,-1.254903674,36.90995336,,,3
0310MPP,Mowlem Police Post,-1.25667,36.905902,,,3
0310MSB,Maili Saba D,-1.254506,36.910782,,,3
0310NPI,Patanisho,-1.2802881,36.9113481,,,0
0310OGP,Ogopa Stage,-1.256158,36.90881,,,3
0310OSO,Soko,-1.262140274,36.88179016,,,0
0310OYT,Thayo,-1.262593925,36.86569154,,,0
0310PGG,Pangani Girls' School/Chai Road,-1.270181537,36.83751225,,,0
0310PGP,Pangani Police Post,-1.270299554,36.83567226,,,0
0310PHI,OiLibia/Worship Center,-1.265944362,36.85139537,,,0
0310PSE,Phase 4 Stage,-1.266817,36.906195,,,3
0310RIS,Wamwaris,-1.261084,36.888065,,,3
0310SEN,Seniors,-1.260172,36.890758,,,3
0310SKA,Saika,-1.256804,36.907785,,,3
0310SNT,St. Teresa,-1.26655519,36.84740424,,,0
0310STP,Posta,-1.245532036,36.90676689,,,3
0310TAO,Thayo,-1.26291275,36.86436117,,,0
0310TEN,Number 10,-1.263894439,36.86114252,,,0
0310TOE,Mowlem Police Post,-1.256797314,36.90077484,,,3
0310TON,Tononoka,-1.257512,36.90233,,,3
0310TOT,Total,-1.258177,36.893397,,,3
0310TUA,Thawabu Primary,-1.27771318,36.91569865,,,3
0310UYU,Muyuyu,-1.271332562,36.85035467,,,0
0310WSJ,Kwa Jose,-1.26605165,36.855129,,,0
0310YAO,Day to Day,-1.274941206,36.8495822,,,0
0311AG1,Stage 41,-1.248204946,36.90271139,,,3
0311AGP,Agip/Olympic,-1.263910532,36.86083674,,,0
0311ASV,Naivas,-1.269891858,36.91333294,,,3
0311AUL,Huruma Flats,-1.261518002,36.869452,,,0
0311BAO,Kwa Mbao,-1.261797,36.88445,,,3
0311BET,Bethany,-1.250111,36.905767,,,3
0311CHF,Kwa Chief,-1.262059808,36.86740279,,,0
0311CIN,41 Stage,-1.252140999,36.90281868,,,3
0311DIZ,Kwa Mandazi,-1.254192,36.90031,,,3
0311DTB,Bee Center/ Roundabt,-1.282739639,36.90278649,,,0
0311ENA,Sosian Estate,-1.281377077,36.90535605,,,0
0311EPC,PCEA Kayole,-1.270680428,36.91300035,,,3
0311ESL,Shule,-1.268368363,36.99223816,,,3
0311FOR,Moi Forces Stage,-1.265525222,36.85909331,,,0
0311FTY,Cinema,-1.25074625,36.90485716,,,3
0311GAM,Mwangaza,-1.273444623,36.91087872,,,3
0311GHS,Eastleigh,-1.279612899,36.84794068,,,0
0311GIO,Rail Crossing,-1.257070899,36.90164655,,,3
0311INP,Pangani,-1.263631582,36.83760613,,,0
0311ION,Huruma Police Station,-1.260638237,36.87404394,,,0
0311ISN,Naivas,-1.269829005,36.91330343,,,3
0311JOD,Joada/Ogopa,-1.256726,36.907904,,,3
0311JSG,Johnsaga,-1.261941791,36.87395275,,,0
0311JUA,Jua Kali/Wamilebe,-1.246175766,36.90839767,,,3
0311KAR,Kariokor,-1.278042,36.833852,,,0
0311KEW,Kwa Jose,-1.265884638,36.85350895,,,0
0311MAI,Cinema,-1.25019443,36.8997395,,,3
0311MAN,Amana/Jay Community,-1.266112804,36.84904575,,,0
0311MBS,Masimba,-1.274378031,36.91058367,,,3
0311MNA,Amana,-1.266152859,36.84933811,,,0
0311NJO,Kiamaiko Junction,-1.256271601,36.87679052,,,3
0311NNE,Marigo Nne,-1.254787,36.899631,,,3
0311NNU,Guru Nanak,-1.269485682,36.83166593,,,0
0311OTG,Gate Ndogo,-1.25900209,36.91234052,,,3
0311PGG,Pangani Girls' School/Chai Road,-1.269865036,36.83823109,,,0
0311PGP,Pangani Police Post,-1.270257,36.835758,,,0
0311PQZ,Qwema plaza,-1.279778481,36.90616071,,,0
0311PSE,Phase 4,-1.266779,36.906209,,,3
0311.RE,St. Teresa,-1.266437173,36.8476671,,,0
0311RIS,Wamwaris,-1.261081,36.887801,,,3
0311RSA,Car Wash,-1.251675814,36.95511371,,,3
0311RTO,Kenol Petrol Station,-1.272629231,36.91129178,,,3
0311SAN,Naivas/Summer,-1.280062795,36.90116912,,,0
0311SAS,Hass,-1.262724996,36.86542064,,,0
0311SBE,Phase 5B,-1.265761256,36.9070673,,,3
0311SEN,Seniors/New Jerusalem,-1.260132,36.890638,,,3
0311SOK,Soko,-1.262113,36.881741,,,0
0311TEN,Number 10,-1.262975,36.863945,,,0
0311THY,Thayo,-1.262537241,36.86572909,,,0
0311TON,Tononoka,-1.257539,36.90247,,,3
0311TOT,Total,-1.258218884,36.89343095,,,3
0311WAK,Kwa Mandizi,-1.254234642,36.96483403,,,3
0311WMI,Pumwani Hospital,-1.279858947,36.84678197,,,0
0312BSK,Bus Station,-1.286348,36.829349,0.0,0006BSS,0
0312EST,Eastleigh Terminal,-1.272252202,36.85048342,,,0
0312GKM,Gikomba Market,-1.284126,36.840649,,,0
0312NGR,Ngara,-1.275796,36.824732,,,0
0312SOK,Soko,-1.262070537,36.88188672,,,0
0313DDS,Dandora Terminal,-1.245059,36.90846,,,3
0313EST,Eastleigh Terminal,-1.27225,36.848948,,,0
0313JST,Johnsaga,-1.262041,36.874019,,,0
0313RND,Rounda,-1.262389,36.878748,,,0
04001ES,Step 1,-1.264604062,36.91691369,,,3
04001LV,First Love,-1.28248,36.89671,,,0
040056_,56,-1.265119046,36.88655108,,,0
0400AAS,Naivas,-1.294698447,36.87670738,,,0
0400ACS,Solace,-1.258579856,36.91663206,,,3
0400AFP,Pefa,-1.299487352,36.88998699,,,0
0400ALF,Supa Loaf,-1.268294817,36.90245926,,,3
0400AOS,Isiolo Road,-1.308322549,36.84412122,,,0
0400AP1,Avenue Park 1,-1.313767433,36.89343095,,,0
0400AP2,Avenue Park 2,-1.311460733,36.89200938,,,0
0400ARR,Umoja 1 Primary,-1.281800866,36.88670397,,,0
0400.AS,S.K.A.,-1.295898557,36.83969289,,,0
0400AZS,Mwangaza SDA,-1.273707479,36.91088676,,,3
0400BDC,Dc Bahati Office,-1.291113,36.857319,,,0
0400BEC,Bee Centre,-1.283356547,36.90285623,,,0
0400BER,Bee Centre/Roundabt,-1.282707453,36.90243244,,,0
0400BFA,Bifa,-1.29074,36.88251,,,0
0400BFR,Biafra,-1.286574,36.851751,,,0
0400BHC,Bahati Clinic,-1.290378571,36.85900748,,,0
0400BKB,Kiambiu,-1.278662682,36.87269747,,,0
0400BNB,Kobil,-1.328943372,36.89176798,,,0
0400BPS,Buru Roundabout,-1.277407408,36.87764347,,,0
0400BRB,Neighbours,-1.277691722,36.87609315,,,0
0400BSA,Busia Road,-1.310838461,36.8478173,,,0
0400CBN,Cabanas,-1.335820556,36.8922776,,,0
0400CHK,Chokaa,-1.250805259,36.95283651,,,3
0400CIN,Nacico,-1.288915604,36.83978945,,,0
0400CKC,KCC,-1.275794274,36.88840449,,,0
0400CKW,Kwa DC,-1.297709477,36.86717749,,,0
0400CLT,Caltex,-1.301525831,36.88736916,,,0
0400CLX,Caltex,-1.278657317,36.88319027,,,0
0400CMT,Chemist,-1.319169402,36.89682126,,,0
0400CNK,Centy Club,-1.233871,36.990191,,,3
0400CNR,Corner,-1.269494891,36.88159704,,,0
0400CNT,Connection,-1.321095228,36.89809799,,,0
0400CRN,Crown,-1.314108,36.852687,,,0
0400CRS,Crescent,-1.306163,36.88208,,,0
0400CST,Cathsam,-1.28459,36.89394,,,0
0400CSV,Mahutini/Southend,-1.269586086,36.88275039,,,0
0400CTB,Country Bus,-1.286757588,36.83513582,,,0
0400CTE,Caltex,-1.278651953,36.88328147,,,0
0400CWN,Crown,-1.307351589,36.85634673,,,0
0400DAA,Daraja,-1.316336989,36.86189622,,,0
0400DC,DC,-1.296924716,36.86363697,,,0
0400DNB,Doni Beach,-1.304934,36.883006,,,0
0400DNE,Dune,-1.269948,36.994619,,,3
0400DSP,Dayspring,-1.263539,36.887485,,,3
0400EAM,Cinema,-1.254009336,36.89589053,,,3
0400EES,St. James/Southern Bypass,-1.324034929,36.84516728,,,0
0400EIH,White House,-1.292953491,36.88602269,,,0
0400ELO,Nile Junction,-1.297733188,36.86740011,,,0
0400ENA,Nasra Stage,-1.27047658,36.90050393,,,3
0400EPA,Epren Academy,-1.29582,36.89553,,,0
0400ERE,Getrudes,-1.26669234,36.91084921,,,3
0400ESH,Phase 2,-1.268019676,36.91191137,,,3
0400EST,East Capital,-1.275336742,36.89150512,,,0
0400ETR,Bee Center,-1.283599466,36.90161973,,,0
0400EUL,Shule,-1.268600589,36.99248493,,,3
0400EXP,Express,-1.314765,36.85437,,,0
0400FAH,Fedha,-1.314427257,36.89381182,,,0
0400FDA,Fedha,-1.314711571,36.89403713,,,0
0400FDE,Fedha Estate,-1.313642,36.895661,,,0
0400FDS,Friends Centre,-1.293532848,36.86470985,,,0
0400FNN,Friends Inn,-1.265337467,36.88618362,,,0
0400FSX,56,-1.264897585,36.88704193,,,0
0400GAM,Stage mpya,-1.312631696,36.89277381,,,0
0400GAO,Mogas,-1.297627455,36.87245071,,,0
0400GGE,Garage,-1.277487874,36.87710702,,,0
0400GMT,General Motors,-1.325933933,36.87072337,,,0
0400GNS,Green Span Estate,-1.28595829,36.90415978,,,0
0400GPM,N,-1.2857759,36.88759446,,,0
0400GRS,Grand Supermaket,-1.283667684,36.89423561,,,0
0400HAJ,Shujaa Mall/Sosian Estate,-1.281056732,36.90553576,,,0
0400HAW,Car Wash,-1.291440725,36.90125227,,,0
0400HCC,Hillocks Country Club,-1.319164,36.865314,,,0
0400HDH,Hodihodi,-1.29309,36.866034,,,0
0400H/M,Southfield/Nakumatt,-1.330114245,36.89019513,,,0
0400HMN,Harmony/Pioneer,-1.265777349,36.87992871,,,0
0400HNB,Hornbill,-1.27876,36.888656,,,0
0400HRB,Harambee,-1.283695,36.873042,,,0
0400HRS,Harambee Sacco,-1.292744279,36.8991065,,,0
0400HRU,Uchumi Jogoo road,-1.296225786,36.86018765,,,0
0400IAC,Nacico,-1.28891024,36.83978945,,,0
0400IAK,Park Inn,-1.320333481,36.8979156,,,0
0400IBO,Kobil,-1.277923948,36.87480032,,,0
0400IEA,Mawe Mbili,-1.263300544,36.97978199,,,3
0400IGM,Dayspring Market,-1.264328957,36.88785195,,,3
0400IIA,OiLibya,-1.297770739,36.85511023,,,0
0400ILC,Civil,-1.263976425,36.88767761,,,3
0400IND,Industrial Area,-1.30012,36.83574,,,0
0400INR,Kenol Petrol Station,-1.284016371,36.88041419,,,0
0400IOI,Kioi,-1.277087063,36.9160822,,,3
0400IOR,Simba Court,-1.329807043,36.8549788,,,0
0400IRJ,New Njiru,-1.249476439,36.94231689,,,3
0400IWK,Kwa Maji,-1.27112335,36.89993799,,,3
0400JMC,M,-1.285067797,36.88740671,,,0
0400JNC,Junction,-1.26347,36.92213,,,3
0400JNT,Junction,-1.27849102,36.88909113,,,0
0400JNV,Jana Villa,-1.289892,36.852357,,,0
0400JSC,Jerusalem Shopping Centre,-1.286124587,36.86716676,,,0
0400JSF,House of Manji,-1.309711933,36.85724258,,,0
0400JSK,Jeska,-1.287991405,36.89165533,,,0
0400KAG,KAG Bahati,-1.288924813,36.86226368,,,0
0400KBE,Kobe,-1.227264,36.990311,,,3
0400KBL,Kobil,-1.328278,36.892562,,,0
0400KCB,KCB,-1.259275675,36.87918305,,,0
0400KCU,Cooperative Umoja,-1.28468,36.88505,,,0
0400KDO,Kwa DO,-1.27476275,36.91045225,,,3
0400KFW,Kwa Chief,-1.267858744,36.88544869,,,0
0400KHE,Bao Kithe,-1.269543171,36.88111424,,,0
0400KIN,JackNice,-1.312132806,36.89903408,,,0
0400KMJ,Koma Junction,-1.265503764,36.90462649,,,3
0400KMK,Kamakis,-1.171282,36.972865,,,3
0400KNA,Kirwa,-1.287809014,36.89101696,,,0
0400KNP,Kenpoly,-1.304277,36.883407,,,0
0400KNS,Kanisani,-1.26881361,36.91386938,,,3
0400KOI,Kioi,-1.279145479,36.91538215,,,3
0400KON,Kona,-1.268641949,36.92062855,,,3
0400KOT,Kotini,-1.295061707,36.86240315,,,0
0400KPS,Kayole Police,-1.26433,36.92351,,,3
0400KRT,Kartasi,-1.315172911,36.85996771,,,0
0400KRY,Kwa Roy,-1.168246,36.967919,,,3
0400KSD,Kisumu Ndogo,-1.299632192,36.88978314,,,0
0400KSP,Kariobangi South Primary School,-1.26747787,36.88548625,,,0
0400KTA,Katami,-1.294339067,36.85162604,,,0
0400KTN,Kitindo,-1.326507926,36.89534605,,,0
0400KWA,Kwal,-1.306381,36.841321,,,0
0400KWC,Kwa Chief,-1.280111074,36.89634919,,,0
0400KWR,Kware,-1.30734086,36.88961148,,,0
0400KYB,Kampala Road,-1.311637759,36.84987187,,,0
0400KYJ,Kayole Junction,-1.257650256,36.92249,,,3
0400LBM,Bobmil,-1.331373453,36.86259627,,,0
0400LET,Hurlingam Stage 2,-1.252634525,36.95800781,,,3
0400LKN,Likoni,-1.296405,36.855267,,,0
0400LLE,Belleview,-1.31956256,36.8377912,,,0
0400LNC,Falcon Road/Kobil,-1.322473884,36.86962634,,,0
0400LRA,Astrid Petrol,-1.249117023,36.94894195,,,3
0400LTM,Mbotela,-1.296204329,36.86025202,,,0
0400MAE,Dar Es Salaam Road,-1.30415976,36.83893651,,,0
0400MAJ,Umoja 2,-1.278320879,36.90018743,,,0
0400MCW,Manyanja Road Car Wash,-1.28986,36.89401,,,0
0400MIU,Hurlingham,-1.253489023,36.9614625,,,3
0400MKG,Rikana/Makongeni,-1.29429996,36.85118079,,,0
0400MLA,Donholm Stage,-1.299353242,36.88683003,,,0
0400MLH,Mama Lucy Hospital,-1.2730515,36.89721823,,,0
0400MNL,Donholm,-1.296665668,36.88587785,,,0
0400MRA,Maria,-1.274258494,36.91786587,,,3
0400MRS,Mara Savanna,-1.298668,36.892513,,,0
0400MRT,Umoja Market,-1.286752224,36.8884635,,,0
0400MSB,Sosian Estate,-1.281468272,36.90530241,,,0
0400MTK,Mitikenda,-1.180882,36.987895,,,3
0400MTP,Metropolitan Hospital,-1.287642717,36.87448382,,,0
0400MTW,Mutindwa,-1.28617,36.88093,,,0
0400MYC,Myca,-1.260863543,36.90981925,,,3
0400MYK,Mayaka,-1.266860962,36.88018084,,,0
0400MZW,Maziwa,-1.293393373,36.84680879,,,0
0400N10,Number 10,-1.293189526,36.86726332,,,0
0400NCC,Nacico,-1.288989186,36.83971167,,,0
0400NKN,Kanisani,-1.309411526,36.82838202,,,0
0400NLI,Nobil,-1.273031563,36.91109598,,,3
0400NOI,Prison,-1.30135417,36.83755249,,,0
0400NPC,NPC Buruburu/CITAM,-1.29399,36.88053,,,0
0400NYD,Nyando,-1.277332306,36.91592932,,,3
0400NYV,Nyama Villa,-1.27618432,36.90890193,,,3
0400OLC,Reflector,-1.253118843,36.93444997,,,3
0400ONA,Raiply,-1.308156252,36.86815917,,,0
0400ONT,Onyatta,-1.24272,36.989463,,,3
0400OOJ,C,-1.277740002,36.89261556,,,0
0400OPS,Posta,-1.246454716,36.90544188,,,3
0400OSO,Sokoni,-1.267307728,36.88546747,,,0
0400PCK,Peacock,-1.278083324,36.89119935,,,0
0400PCL,Complex,-1.310446858,36.90028131,,,0
0400PES,Pioneer Estate,-1.271817684,36.8805027,,,0
0400PFS,Phase 4 Stage,-1.28923,36.88201,,,0
0400PH5,Phase 5,-1.29204154,36.90046906,,,0
0400PIO,Pioneer Estate,-1.267826557,36.8804276,,,0
0400PMR,Prime Rose,-1.276291609,36.91680908,,,3
0400POS,Post/Mihang'o,-1.265305281,36.9232893,,,3
0400PPL,Taj Mall,-1.32375598,36.89966977,,,0
0400PS1,Maringo Phase1,-1.293404102,36.86271966,,,0
0400PSG,Raphaels,-1.272407,36.877518,,,0
0400PSM,Buru 1 Primary School,-1.274135113,36.87757373,,,0
0400PST,Post,-1.281103492,36.91366017,,,3
0400PTC,Patco,-1.308478117,36.86548233,,,0
0400QPM,QMP,-1.252904302,36.95927918,,,3
0400QTY,Equity,-1.309123,36.845319,,,0
0400RAH,warah,-1.27821207,36.90821797,,,0
0400RAU,Rounda,-1.262735724,36.87837839,,,0
0400RBA,Homa Bay Road,-1.307587624,36.84294373,,,0
0400RCK,Rocks,-1.27296,36.9111,,,3
0400RDA,Rounda/Taj,-1.323214173,36.90067828,,,0
0400REN,Bee Centre,-1.282773346,36.90289646,,,0
0400RND,Rounda,-1.264591813,36.90834403,,,3
0400ROA,Road A,-1.317972,36.862809,,,0
0400ROD,Kwa Breakdown,-1.270263523,36.88098818,,,0
0400ROU,Mutarakwa Road,-1.269301772,36.881015,,,0
0400RPY,Tanga Road,-1.307445,36.873329,,,0
0400RST,Raster,-1.275374293,36.91746354,,,3
0400RUU,Subaru,-1.330536604,36.85629845,,,0
0400S3B,Sector 3B,-1.265207,36.90773,,,3
0400SBA,Sabasaba,-1.273008585,36.91824675,,,3
0400SET,Sector 3A,-1.265181899,36.90914869,,,3
0400SFD,Softa Road,-1.324549913,36.87071532,,,0
0400SIX,36 Stage,-1.262572,36.886991,,,3
0400SKJ,Saika Junction,-1.259639,36.912423,,,3
0400SLA,Stella,-1.289557815,36.8852073,,,0
0400SNC,Sun City,-1.285452,36.85161,,,0
0400SNG,Sango,-1.286537647,36.89445019,,,0
0400SOS,Shujaa Mall,-1.281049848,36.90559208,,,0
0400SP1,Step 1,-1.265112162,36.9165194,,,3
0400SPE,Super Highway,-1.165114,36.958521,,,3
0400SRY,Oyster,-1.292991042,36.89840376,,,0
0400STG,Stage Mpya,-1.312619448,36.89271748,,,0
0400STL,Stella,-1.289584637,36.88521802,,,0
0400SUR,Summers,-1.278689504,36.90746963,,,0
0400SVN,Savanna,-1.297722459,36.89374208,,,0
0400SWT,Soweto,-1.281355619,36.9147706,,,3
0400TAT,Total,-1.269779205,36.88090235,,,0
0400TIU,Mahutini/Southend,-1.269521713,36.88287109,,,0
0400TJR,Total Jogoo Road/Mogas,-1.298060417,36.86939299,,,0
0400TLA,Total Hamza,-1.297096342,36.87606901,,,0
0400TLS,Slaughter,-1.252698898,36.9355309,,,3
0400TMI,Tumaini/Tassia,-1.309293509,36.8906951,,,0
0400TMN,Tumaini,-1.297261119,36.89433217,,,0
0400TMW,Outer Mwisho,-1.27181232,36.879403,,,0
0400TNJ,Jestan,-1.247280836,36.90440387,,,3
0400TOO,Kenol Petrol Station,-1.283851594,36.88029617,,,0
0400TPK,Tetrapark,-1.314008832,36.85653448,,,0
0400TRN,Transami,-1.325343847,36.89726114,,,0
0400TSA,Tassia,-1.31038785,36.89134955,,,0
0400TSH,Tushauriane,-1.266624928,36.91598833,,,3
0400TSK,Tuskys,-1.29019618,36.90194964,,,0
0400TSX,Junction 30 Stage,-1.261387,36.886382,,,3
0400TTP,Total Petrol Station,-1.2698704,36.88097477,,,0
0400TUI,Equity,-1.326615214,36.84960902,,,0
0400TUY,Tuskys,-1.307043,36.876106,,,0
0400TYO,Joystar,-1.286950707,36.88913405,,,0
0400UAU,Lunga Lunga Square,-1.309245229,36.8607375,,,0
0400UCB,Uchumi Buruburu,-1.28808,36.88157,,,0
0400UFD,Uhuru Fields,-1.285164356,36.86814845,,,0
0400UJJ,Umoja Junction,-1.27826035,36.89048588,,,0
0400UJN,Uhuru Junction,-1.281881332,36.87142074,,,0
0400UJR,Uchumi Jogoo Road,-1.296231151,36.86021984,,,0
0400UM1,Umoja 1/Jasho Stage,-1.284155846,36.88728869,,,0
0400UM2,Umoja 2,-1.279338598,36.89818919,,,0
0400UMA,Umoja 3,-1.274334311,36.89458966,,,0
0400UMD,Umoja Dispensary,-1.282600164,36.88680053,,,0
0400UMJ,Cherina,-1.276286244,36.88646793,,,0
0400UMM,Umoja Market/ Cooperative Umoja/ Jasho Stage,-1.283683777,36.88715458,,,0
0400UMP,Umoja PCEA,-1.280541,36.886606,,,0
0400UOJ,Umoja 3,-1.27435661,36.89427316,,,0
0400URH,Muthurwa,-1.286457181,36.83437943,,,0
0400USM,Summers,-1.278743148,36.90739185,,,0
0400USS,Uhuru Secondary School,-1.283791,36.869433,,,0
0400VAN,Naivas,-1.294675469,36.87687099,,,0
0400VNA,Viwandi,-1.307866573,36.85639769,,,0
0400VPK,KMall,-1.266442537,36.90558672,,,3
0400VSP,Visa Place,-1.277917027,36.89503491,,,0
0400WKM,Welkim,-1.266918,36.989741,,,3
0400YAA,Mayaka,-1.266775131,36.88017547,,,0
0400ZAH,Hamza,-1.297321647,36.87486738,,,0
04011EP,Step 1,-1.265049308,36.91654354,,,3
0401AAN,Naivas,-1.29457891,36.8770507,,,0
0401ABL,OiLibya,-1.29789412,36.85533017,,,0
0401ADI,Dunia,-1.254658431,36.89352483,,,3
0401AIM,Hurlingam/QMP,-1.25333882,36.96108162,,,3
0401AIN,Kanisani,-1.257596612,36.87867343,,,3
0401ALL,Shujaa Mall,-1.281023026,36.90553308,,,0
0401AMA,Makadara,-1.296349168,36.861974,,,0
0401AMB,Bamudas,-1.26214183,36.9077003,,,3
0401AMG,Uchumi Stage,-1.295910716,36.85938191,,,0
0401ANE,Tena,-1.291773319,36.89144075,,,0
0401ANK,Rikana,-1.294086903,36.85150534,,,0
0401ANO,Nacico,-1.287369132,36.83731377,,,0
0401ARA,Imara Primary,-1.2713027,36.91911578,,,3
0401ATN,Nabuto,-1.285486221,36.89403176,,,0
0401BCK,KCB,-1.25973165,36.87875122,,,0
0401BDG,Bridge,-1.271248,36.880891,,,0
0401BEC,Bee Centre,-1.28332,36.90282,,,0
0401BEN,Nasra Estate,-1.280781627,36.90153122,,,0
0401BFR,Biafra,-1.286501,36.851676,,,0
0401BKC,KCB,-1.259656549,36.87874585,,,0
0401BLK,Kobil,-1.320912838,36.89826965,,,0
0401BMP,Bumps,-1.26989,36.90834,,,3
0401BPF,Buruburu Phase 5 Favourites,-1.29403,36.87993,,,0
0401BPH,Buruburu Phase One,-1.272804737,36.87750936,,,0
0401BPR,Neighbours Buruburu Phase 1,-1.275363564,36.87737525,,,0
0401BPS,Bahati Primary School Kag Bahati,-1.288887262,36.86239243,,,0
0401BRG,Buru Buru Girls,-1.286376715,36.87401175,,,0
0401BSA,Busia Road,-1.310731173,36.84787095,,,0
0401BSR,Kayole Hospital/Biason Road,-1.270240545,36.91982388,,,3
0401CAS,East Capital,-1.274988055,36.89220786,,,0
0401CEX,Chloride Exide,-1.32153511,36.86866343,,,0
0401CHK,Chokaa,-1.250724,36.952748,,,3
0401CLT,Caltex/Total,-1.300812364,36.88763201,,,0
0401CLV,Calvary,-1.264661551,36.91691637,,,3
0401CLX,Caltex,-1.278271079,36.88395202,,,0
0401CMT,Chemist,-1.319196224,36.8972075,,,0
0401CNI,Junction,-1.297605997,36.86775684,,,0
0401CNK,Centy Club,-1.233479,36.990048,,,3
0401CRS,Crescent,-1.306213,36.881607,,,0
0401CVS,Mahutini/Southend,-1.26937151,36.88124835,,,0
0401CVT,Total Outering road,-1.269494891,36.88036859,,,0
0401CWS,Carwash,-1.309111118,36.90194964,,,0
0401DAA,Daraja,-1.316476464,36.86215907,,,0
0401DAR,Dar es Salaam Road,-1.304079294,36.8391484,,,0
0401DC,DC,-1.297396785,36.87316418,,,0
0401DHC,Church Road,-1.311863065,36.89915478,,,0
0401DNE,Dune,-1.270022,36.994872,,,3
0401DOA,Mogadishu Road,-1.308778524,36.8630603,,,0
0401DPG,Spring Board,-1.282889843,36.89550161,,,0
0401DSL,Diesel,-1.270568,36.919652,,,3
0401ECM,Cinema,-1.253921986,36.89588785,,,3
0401EDN,Misenda,-1.282580227,36.90321833,,,0
0401ENJ,Jerusalem Junction,-1.286115414,36.86630309,,,0
0401EOJ,Toll Gate JKIA,-1.345817327,36.90778399,,,0
0401EPA,Epren Academy,-1.29547,36.89568,,,0
0401EQM,Qwema Plaza,-1.279762387,36.90622509,,,0
0401ESN,BP/Dandora Inn/Shell,-1.254635453,36.89444482,,,3
0401EYT,Equity,-1.258277893,36.87870294,,,3
0401FDA,Stage Mpya,-1.314035654,36.89394593,,,0
0401FDE,Fedha Estate,-1.313459,36.895747,,,0
0401FDJ,Fedha Junction,-1.314264,36.894384,,,0
0401FDS,Friends Centre,-1.293403,36.864591,,,0
0401FLC,Falcon Road/Kobil,-1.322638,36.86984,,,0
0401FNN,Friends Inn,-1.265392,36.885949,,,0
0401FPL,Supa Loaf,-1.267585158,36.9029206,,,3
0401GEA,Kwa Garage,-1.279458171,36.87159777,,,0
0401GEE,G,-1.279773116,36.88716531,,,0
0401GKC,Goa Kayole Church,-1.271141768,36.91923916,,,3
0401GM,GM,-1.329785585,36.8711257,,,0
0401GMA,Grand Supermaket,-1.283538938,36.89423025,,,0
0401GNF,Green Field/Mwea House,-1.29453063,36.89625263,,,0
0401GSE,Green Span Estate,-1.286156774,36.90407932,,,0
0401HBN,The Bantu,-1.261288887,36.97392941,,,3
0401HDH,Hodihodi,-1.293019,36.866085,,,0
0401HHH,H,-1.279038191,36.88801825,,,0
0401HIO,Doshi,-1.329120398,36.88484251,,,0
0401HLL,Shell,-1.321105957,36.84111178,,,0
0401HMB,Homa Bay Road,-1.307222843,36.84289277,,,0
0401HMT,Home Matt,-1.308708787,36.90250754,,,0
0401HOD,Donholm,-1.29665494,36.88595295,,,0
0401HPE,Raphael,-1.271726489,36.87937081,,,0
0401HRB,Harambee,-1.285110712,36.8737489,,,0
0401HRC,Cherina,-1.277219653,36.88510537,,,0
0401HRS,Harambee Sacco,-1.292663813,36.89936399,,,0
0401HSU,Outer Mwisho,-1.271506548,36.88063949,,,0
0401HUJ,Uhuru Primary,-1.281870604,36.87115252,,,0
0401IDO,Isiolo Road,-1.308225989,36.84424192,,,0
0401IEK,Kwa Chief,-1.267356044,36.88535213,,,0
0401IFA,Infill A,-1.27138,36.90951,,,3
0401IFB,Infill B,-1.26579,36.90711,,,3
0401ILE,Elim,-1.293232441,36.88960344,,,0
0401IND,Industrial Area,-1.30013,36.83601,,,0
0401IVA,Naivas,-1.29458043,36.8772921,,,0
0401IYU,Equity,-1.258326173,36.87873513,,,3
0401JCN,Jacaranda,-1.287406683,36.90452993,,,0
0401JCY,JackNyce,-1.312238574,36.89892948,,,0
0401JEN,Joy Gardens,-1.290453672,36.89104378,,,0
0401JNT,Corner Junction,-1.278603673,36.88922524,,,0
0401JTA,Taj Mall Interchange,-1.323643327,36.89960003,,,0
0401JUC,Junction,-1.292170286,36.8686527,,,0
0401JUN,Junction,-1.27971,36.91058,,,0
0401KAU,Kapur,-1.278131604,36.8914032,,,0
0401KBE,Kobe,-1.226859,36.990212,,,3
0401KBU,Uhuru Junction,-1.279735565,36.87129736,,,0
0401KCC,KCC,-1.275618732,36.88866198,,,0
0401KCF,Kwa Chief,-1.280111074,36.89615607,,,0
0401KCT,Kiambiu,-1.278957725,36.87228441,,,0
0401KDO,Kwa DO,-1.274687648,36.91045761,,,3
0401KIE,KIE,-1.306552291,36.85644329,,,0
0401KMJ,Koma Junction,-1.26531601,36.90455139,,,3
0401KMK,Kamakis,-1.171119,36.972287,,,3
0401KNA,Nakumatt HQ,-1.328701973,36.85421705,,,0
0401KNB,Mesora,-1.282337308,36.87962294,,,0
0401KNL,Kenol Petrol Station,-1.284054,36.880382,,,0
0401KNM,Kona Mbaya,-1.26323998,36.92140102,,,3
0401KNS,Kanisani,-1.26891017,36.91362262,,,3
0401KOB,K South primary,-1.267632,36.885368,,,0
0401KOJ,Koma Junction,-1.265460849,36.90446019,,,3
0401KON,Kona/Bambo Villa,-1.268573,36.920489,,,3
0401KOT,Kotini,-1.296118,36.86203,,,0
0401KRY,Kwa Roy,-1.168359,36.967716,,,3
0401KSD,Kisumu Ndogo,-1.29924,36.89012,,,0
0401KSR,mama lucy,-1.278802156,36.89899921,,,0
0401KST,Kimathi/Section 3 Junction,-1.28872633,36.86312199,,,0
0401KTN,Kitindo,-1.32660985,36.89596832,,,0
0401KWR,Kware,-1.307512522,36.89001918,,,0
0401KYJ,Kayole Junction,-1.255456209,36.92905068,,,3
0401LEP,Complex,-1.309905052,36.90087676,,,0
0401LEU,Shule,-1.268455053,36.99227571,,,3
0401LHS,Jericho Hosptial,-1.291841,36.87144,,,0
0401LUM,Lumumba madukani,-1.293109059,36.86795533,,,0
0401M,M,-1.28508389,36.88741744,,,0
0401MAA,Cathsam,-1.284595728,36.89380646,,,0
0401MAM,Mamba,-1.309228,36.859428,,,0
0401MBA,Masimba,-1.27812,36.90812,,,0
0401MBC,Mbuyu Court,-1.2633,36.91375,,,3
0401MEA,Qwema Plaza,-1.279801458,36.90619022,,,0
0401MHN,Mihang'o,-1.265600324,36.9229728,,,3
0401MKB,Mt Kenya Bar Shauri Moyo,-1.291805506,36.85549378,,,0
0401MKC,Mukokoa Court,-1.262199,36.912699,,,3
0401MLD,Tassia,-1.310141087,36.8915534,,,0
0401MLH,Mama Lucy Hospital,-1.272772551,36.89728796,,,0
0401MPC,Msaponi Court,-1.26368,36.91417,,,3
0401MPS,Morisson Primary School,-1.289922595,36.85985506,,,0
0401MRA,Maria,-1.274258494,36.91781759,,,3
0401MRJ,Manyanja Road Car Wash,-1.289859778,36.89398885,,,0
0401MRR,Manyanja Road Round About,-1.28621,36.89796,,,0
0401MSB,Sosian Estate,-1.281414628,36.90540433,,,0
0401MSC,Msisi Court,-1.262869,36.913268,,,3
0401MTK,Mitikenda,-1.180853,36.987592,,,3
0401MTP,Metropolitan Hospital,-1.288246,36.874672,,,0
0401MVC,Mvinje Court,-1.261818409,36.91172361,,,3
0401MWS,Raphael,-1.271801591,36.87940836,,,0
0401MYA,Myca,-1.260553962,36.91009283,,,3
0401MYJ,Manyanja,-1.294412613,36.88806117,,,0
0401N10,No 10,-1.293061,36.867141,,,0
0401NAS,NAS,-1.33724,36.919257,,,0
0401NAT,Patanisho,-1.278185248,36.90809727,,,0
0401NBP,Kobil Calvary Temple,-1.278099418,36.87411904,,,0
0401NCK,NCCK,-1.295608878,36.87657863,,,0
0401NMA,Elim,-1.295152903,36.88661814,,,0
0401NPC,NPC Buruburu,-1.29385,36.88073,,,0
0401NTR,Tushauriane,-1.266513795,36.91602319,,,3
0401NYD,Nyando,-1.277375221,36.91580057,,,3
0401NYR,Nyora,-1.26706481,36.92230225,,,3
0401NYV,Nyama Villa,-1.276141405,36.90888047,,,3
0401ODI,Londiani Road,-1.303693056,36.85600609,,,0
0401ODO,Softa Road,-1.324378252,36.87077969,,,0
0401OGS,Mogas,-1.297856569,36.86970413,,,0
0401OHS,Hillocks Junction,-1.320333481,36.86696559,,,0
0401OIL,Bobmil,-1.330949664,36.86243534,,,0
0401OLJ,C,-1.277917027,36.89184844,,,0
0401ONH,Donholm,-1.296579838,36.88605487,,,0
0401ONT,Onyatta,-1.242568,36.989322,,,3
0401ONY,Harmony/Pioneer,-1.263813972,36.87905163,,,0
0401ORC,Overcomers,-1.27784729,36.90815896,,,0
0401OTM,The Komarock School,-1.264736652,36.91619754,,,3
0401P1M,Sector 0 (Zero),-1.26243,36.9103,,,3
0401P3B,Phase 3B,-1.268758,36.906726,,,3
0401PCE,Pcea,-1.270787716,36.91301107,,,3
0401PCK,Peacock,-1.278303266,36.89037323,,,0
0401PD1,JKIA - Passenger Drop Off 2,-1.330685,36.924092,,,0
0401PDO,JKIA - Passenger Drop Off,-1.331908,36.925852,,,0
0401PLB,Plan B,-1.278775334,36.88861907,,,0
0401PMR,Prime Rose,-1.276377439,36.91664815,,,3
0401PNR,Pioneer Estate,-1.271490455,36.88060462,,,0
0401POS,Post,-1.28107,36.91382,,,3
0401PPL,Pipeline,-1.316594481,36.89554989,,,0
0401PS1,Maringo Phase1,-1.293303,36.862738,,,0
0401PS4,Phase 4/Car Wash,-1.26837,36.90571,,,3
0401PSN,Prison,-1.300879,36.837576,,,0
0401QTY,Equity,-1.309159398,36.84561789,,,0
0401RCK,Rocks,-1.27294,36.91098,,,3
0401RDA,Dandora Sec,-1.250917912,36.8988651,,,3
0401RKN,Rikana,-1.294112206,36.85143292,,,0
0401ROA,Road A,-1.317978501,36.86298251,,,0
0401ROK,Rocks,-1.27285,36.91115,,,3
0401RPL,Buru 1 primary,-1.27212882,36.87733769,,,0
0401RSE,Summers,-1.278705597,36.90742671,,,0
0401RWE,Twisters,-1.256729096,36.9250837,,,3
0401S1S,Phase 1 stage,-1.271694303,36.87827379,,,0
0401S3B,Sector 3B,-1.26513,36.90769,,,3
0401SAQ,Lunga Lunga Square,-1.309025288,36.86067581,,,0
0401SBA,Sabasaba,-1.273040771,36.91817701,,,3
0401SDA,Landhies,-1.287959218,36.83852077,,,0
0401SEE,St. James/Southern Bypass,-1.323766708,36.84567153,,,0
0401SHL,Kartasi,-1.314969063,36.86001062,,,0
0401SIX,36 Stage,-1.262577,36.886961,,,3
0401SLT,Shimo La Tewa,-1.308585405,36.82831764,,,0
0401SMJ,Umoja Dispensary,-1.282607085,36.88683271,,,0
0401SNI,Sinai,-1.306552,36.87874,,,0
0401SOS,Sos,-1.271641,36.878322,,,0
0401SOY,Joystar,-1.286972165,36.88922524,,,0
0401SPE,Super Highway,-1.165307,36.958585,,,3
0401SPL,Supa Loaf,-1.268888712,36.90185308,,,3
0401SPN,Kobil,-1.328787804,36.89258873,,,0
0401STG,Meatland,-1.312388778,36.89294815,,,0
0401SVN,Savanna,-1.2971,36.89441,,,0
0401SWM,Sowematt,-1.263862252,36.92283869,,,3
0401SWT,Soweto,-1.281484365,36.91460967,,,3
0401TAL,Total/Gilgil Road,-1.306321621,36.84146583,,,0
0401TEU,Outer Mwisho,-1.271490455,36.88067704,,,0
0401TGS,Tuskys Green Span,-1.29024,36.90175,,,0
0401TIT,Tata Bus Terminus,-1.311843163,36.82985187,,,0
0401TKY,Tuskys,-1.262146,36.976114,,,3
0401TLT,Total,-1.266898513,36.879749,,,0
0401TMI,Tumaini,-1.309272051,36.89102769,,,0
0401TNS,Transgobal,-1.339334249,36.91148221,,,0
0401TPK,Tetra Pak,-1.313697696,36.85664177,,,0
0401TQU,Equity,-1.281350255,36.87906235,,,0
0401TRN,Transami,-1.3254565,36.89787805,,,0
0401TSX,Junction 36 Stage,-1.261435,36.886392,,,3
0401TTL,Total,-1.269714832,36.88050807,,,0
0401TUI,Kayole Junction,-1.257405049,36.92260265,,,3
0401TUY,Tuskys,-1.306922,36.875984,,,0
0401TYI,Equity,-1.252355576,36.89741671,,,3
0401UCB,Uchumi Buruburu,-1.288,36.88153,,,0
0401UES,Mosque,-1.279284954,36.90675616,,,0
0401UJJ,Umoja Junction,-1.27597,36.88731,,,0
0401UJR,Uchumi Jogoo Road,-1.296123862,36.86067045,,,0
0401UM1,Umoja 1/Jasho Stage,-1.284043193,36.88715994,,,0
0401UM2,Umoja 2,-1.279166937,36.89819455,,,0
0401UM3,Umoja 3,-1.274076104,36.89482033,,,0
0401UMD,Umoja PCEA,-1.282476783,36.88677907,,,0
0401UMJ,Umoja Junction/Caltex,-1.279445887,36.88239098,,,0
0401UMM,Umoja Market,-1.286768317,36.88851178,,,0
0401UOU,Uchumi Jogoo Road,-1.297831303,36.87019765,,,0
0401UPS,Uhuru Shopping Centre,-1.282466054,36.87089503,,,0
0401-UR,Uchumi - Jogoo Road,-1.297927827,36.87021643,,,0
0401USC,Uhuru Secondary,-1.283200979,36.870085,,,0
0401VWA,Viwandani,-1.307979226,36.85659885,,,0
0401VWP,KMall,-1.266270876,36.90557599,,,3
0401.WD,Kwa D.C.,-1.297525495,36.86740547,,,0
0401WIA,Kwa Maji,-1.270943284,36.89981997,,,3
0401WKM,Welkim,-1.26668,36.989375,,,3
0401YKA,Mayaka,-1.266024113,36.87949955,,,0
0401YMK,Mayaka,-1.26604557,36.87955588,,,0
0402AQN,Aquinas,-1.295115352,36.8670702,,,0
0402CLT,Caltex,-1.300978661,36.88819528,,,0
0402CTY,City Stadium/Lusaka Road Junction,-1.29345,36.84094,,,0
0402DON,Donholm,-1.298950911,36.88656449,,,0
0402KY1,Kayole 1/Queen's Park,-1.26236558,36.91929281,,,3
0402LDR,Ladhies Road/OTC,-1.284375787,36.83277547,,,0
0402MLY,Mama Lucy Terminal,-1.275035,36.898525,,,0
0402MWH,Makadara/Mwisho,-1.29614532,36.86218321,,,0
0402RAU,Rounda,-1.262810826,36.87936544,,0014KRA,0
0403BNG,Kanisani,-1.257607341,36.8791616,,,3
0403DMS,Donholm,-1.300211,36.885745,,,0
0403DSL,Kayole Hospital,-1.270240545,36.91980243,,,3
0403GMW,GM Town,-1.328439116,36.8701601,,,0
0403INC,Spring board,-1.282964945,36.89557672,,,0
0403JCN,Jacaranda,-1.287567616,36.90474451,,,0
0403JOS,Joster,-1.282798648,36.85111105,,,0
0403KBL,Kobil,-1.328755617,36.89244926,,,0
0403KSE,Civil Servant/Deliverance Church,-1.262569427,36.88704193,,,3
0403KY1,Kayole 1,-1.262231469,36.91956639,,,3
0403LMS,Rabai,-1.290614605,36.87376499,,,0
0403MKC,Mkanju Court,-1.264168024,36.91467941,,,3
0403MKI,Mwiki Terminal,-1.235916,36.934875,,,3
0403MTW,Mutindwa,-1.28628552,36.88094795,,,0
0403MWF,Gate B,-1.308225989,36.90320492,,,0
0403NYO,Baricho Road Terminus,-1.30411,36.82775,,,0
0403QKM,Quickmart,-1.271259785,36.99688911,,,3
0403RAU,Rounda,-1.263234615,36.87937617,,,0
0403RDA,Rounda,-1.322940588,36.89960003,,,0
0403SKJ,Saika,-1.259533167,36.91248,,,3
0403UM2,Umoja 2 Terminus,-1.279268861,36.89815164,,,0
040HHH,H,-1.27897,36.888,,,0
040PLB,Plan B,-1.27877,36.88843,,,0
0410AAA,Manyanja,-1.294401884,36.88741744,,,0
0410AAL,Vision Plaza,-1.327291131,36.85078382,,,0
0410ABT,Bata,-1.320134997,36.89742744,,,0
0410ADA,Imara Daima,-1.329007745,36.88011646,,,0
0410AG2,Stage 24,-1.293452382,36.86348677,,,0
0410AKO,Komarock Infilll,-1.266008019,36.90702975,,,3
0410AMW,Maziwa,-1.293384165,36.84693485,,,0
0410ANA,Patanisho,-1.279409856,36.91018671,,,0
0410ANN,Manyanja,-1.294949055,36.88710093,,,0
0410AOC,Cargo,-1.335268021,36.91742599,,,0
0410API,Patanisho estate,-1.278448105,36.90869808,,,0
0410APT,JKIA - Airport Town Stage,-1.332188845,36.92635775,,,0
0410AQA,Qwema Plaza,-1.279822916,36.90615267,,,0
0410ARA,Nasra,-1.278276443,36.90012842,,,0
0410ARL,Capital Center,-1.317055821,36.83363378,,,0
0410ARN,Tusker/Ronald Ngala,-1.285811126,36.82771146,0.0,0011TUS,0
0410ASE,Park Side Towers/Airtel,-1.325252652,36.84722185,,,0
0410ASN,Nasra Estate,-1.279785365,36.90098673,,,0
0410AWC,Car Wash,-1.285296142,36.89917624,,,0
0410BAT,BAT,-1.305345297,36.85609996,,,0
0410BBP,Buruburu Police Post,-1.279672,36.878203,,,0
0410BDN,Donholm Roundabout/Stage,-1.296612024,36.88447237,,,0
0410BEN,Bee Centre,-1.28363,36.9017,,,0
0410BHS,Bahati Stage,-1.289257,36.861512,,,0
0410B/M,Sameer/Lab,-1.331019402,36.86511755,,,0
0410BPF,Buruburu Phase 5 Stage,-1.29428,36.87888,,,0
0410BPS,Ruai Bypass,-1.264259,36.983082,,,3
0410BRG,Buruburu Girls,-1.286076307,36.87409222,,,0
0410CCR,Church Army,-1.294696927,36.85285985,,,0
0410CEX,Chloride Exide,-1.321546,36.868628,,,0
0410CGR,Car & General,-1.30201,36.83195,,,0
0410CJA,Jericho Hospital,-1.291693568,36.87169433,,,0
0410CMH,Church Army,-1.294031739,36.85223758,,,0
0410COM,Commercial,-1.303715,36.838689,,,0
0410CPK,Peacock/Umoja Junction,-1.27835691,36.89040005,,,0
0410CRN,Charina,-1.276302338,36.88651085,,,0
0410CST,City Stadium,-1.292438507,36.84258163,,,0
0410CUS,Jericho SDA Church,-1.287460327,36.8704766,,,0
0410CUT,Junction,-1.292352676,36.86892092,,,0
0410DCJ,DC Jogoo Road,-1.296488643,36.86221004,,,0
0410DNB,Uchumi,-1.30543,36.882598,,,0
0410DNR,Donholm Interchange/Stage,-1.296708584,36.88422561,,,0
0410DPI,Paradise,-1.245168775,36.90716654,,,3
0410DTB,DT Dobie,-1.29908,36.83715,,,0
0410EAD,Ladhies,-1.288318634,36.83840275,,,0
0410EHA,Donholm Stage,-1.295539141,36.88646793,,,0
0410EIE,Pipeline,-1.317341691,36.89563036,,,0
0410ENI,Pipeline,-1.317729413,36.89583957,,,0
0410ERO,Corner,-1.264770359,36.8871519,,,0
0410ETJ,Shell Komarock Junction,-1.263193256,36.90647185,,,3
0410GRE,Garage,-1.271157861,36.88128054,,,0
0410HCO,Ofafa Jericho High School,-1.291789412,36.86821818,,,0
0410HMA,Donholm Naivas,-1.296939254,36.88688099,,,0
0410HMZ,Hamza,-1.297384501,36.87473059,,,0
0410HRB,Harambee,-1.284973,36.873887,,,0
0410IBN,Makaburini,-1.29853785,36.82360232,,,0
0410IEO,Jericho/Lumumba Shops,-1.292379498,36.86978996,,,0
0410ILO,Kobil,-1.277933121,36.8748486,,,0
0410ISR,Twisters,-1.255434752,36.92927599,,,3
0410ITN,Outering,-1.271833777,36.87938154,,,0
0410J1K,Umoja 1 Market,-1.283791065,36.88707948,,,0
0410JKJ,GM,-1.33030057,36.87059999,,,0
0410JMN,Umoja Junction,-1.275982028,36.88725114,,,0
0410JNC,Junction,-1.2636,36.92242,,,3
0410JUO,Umoja,-1.29448927,36.88751936,,,0
0410K1M,Kayole 1 Market,-1.266303062,36.92269921,,,3
0410KBM,BMK,-1.328766346,36.85329974,,,0
0410KCF,Kwa Chief,-1.271844506,36.91879928,,,3
0410KEE,Steel Makers,-1.337381601,36.8939513,,,0
0410KLL,Kaloleni,-1.293114424,36.84554279,,,0
0410KNS,Kanisani,-1.26901,36.913514,,,3
0410KOB,K South primary,-1.267766,36.885365,,,0
0410KSD,Kisumu Ndogo,-1.299596,36.889769,,,0
0410KWC,Kwa Chief,-1.279317141,36.89597905,,,0
0410LAM,Green Span Mall,-1.288238168,36.904082,,,0
0410LAO,Transglobal,-1.337827204,36.91395092,,,0
0410LET,Caltex/Total,-1.301375628,36.88779563,,,0
0410LIT,St. Philip,-1.290378571,36.87483788,,,0
0410LMW,Shimo la Tewa,-1.30859077,36.82799578,,,0
0410LOM,Donholm,-1.298891902,36.88677371,,,0
0410LSE,Shell,-1.321879989,36.84148729,,,0
0410MAK,Market,-1.288553,36.874986,,,0
0410MIA,Maziwa,-1.293341249,36.84688658,,,0
0410MKD,Makadara/DC Jogoo Road,-1.29665494,36.86215103,,,0
0410MLI,Elim,-1.293260819,36.88958466,,,0
0410MRB,Mareba,-1.308998466,36.8622905,,,0
0410MRR,Manyanja Road Round About,-1.28772,36.89679,,,0
0410MSB,Masimba/Overcomers,-1.278297901,36.90790415,,,0
0410MUT,Mtindwa,-1.285502315,36.88420951,,,0
0410NA0,Namba 20,-1.278401345,36.91542774,,,3
0410NAI,Donholm Stage,-1.295544505,36.8864733,,,0
0410NBT,Nabuto,-1.285325289,36.89413905,,,0
0410NCK,NCCK,-1.29581,36.87668,,,0
0410NJB,Taj Roundabout,-1.323557496,36.89954638,,,0
0410NJR,Njiru,-1.250577,36.939914,,,3
0410NKO,Kayole One,-1.262172461,36.91952884,,,3
0410NML,Nyama Villa,-1.275896162,36.90922648,,,3
0410NOD,Standard Group,-1.331598759,36.8603003,,,0
0410NPB,Ngorofani PCEA Bahati,-1.289988,36.859837,,,0
0410NSE,Nasra Estate,-1.279767752,36.90091968,,,0
0410OAD,Kwa D.O,-1.274757385,36.91045225,,,3
0410OAP,Kayole Hospital,-1.270529062,36.91970587,,,3
0410OAS,Posta,-1.295630336,36.85737133,,,0
0410OAU,Donholm Roundabout,-1.287209719,36.89737111,,,0
0410OEA,Chokaa Stage 2,-1.249868041,36.95108771,,,3
0410OJH,Hospital Jericho,-1.291666031,36.87191963,,,0
0410OKL,Kobil,-1.277922392,36.87481374,,,0
0410OML,Donholm,-1.298806071,36.88652694,,,0
0410PAW,Gateway Park,-1.326294905,36.84911013,,,0
0410PCE,PCEA,-1.27141,36.91245,,,3
0410PDA,Happyland,-1.285395026,36.8739742,,,0
0410PFJ,Phase 4 Ya Juu,-1.292851567,36.88221931,,,0
0410PH8,Phase 8,-1.288694143,36.90351069,,,0
0410PST,Posta,-1.295667887,36.85738206,,,0
0410PWS,View Park/Phase 4/Phase 5B,-1.266801953,36.90606415,,,3
0410RAT,St. Teresa,-1.279113293,36.9070673,,,0
0410RIK,Rikana,-1.293439,36.852278,,,0
0410RPT,Power Station,-1.255457765,36.96776032,,,3
0410RSK,Salvation Army/Tusker,-1.285259932,36.8310948,,,0
0410RST,Raster,-1.275846362,36.91713631,,,3
0410RTO,Step 1,-1.264843941,36.91659182,,,3
0410SAH,Tushauriane,-1.26650691,36.91619754,,,3
0410SIA,Naivas,-1.279472709,36.90086603,,,0
0410SNI,Sinai,-1.306614,36.879198,,,0
0410SSO,Sos,-1.271833777,36.87790096,,,0
0410TAM,St. James,-1.282102793,36.8795988,,,0
0410TEN,Tena,-1.291832328,36.89149439,,,0
0410THU,South C,-1.313627958,36.83037221,,,0
0410TIA,Tushauriane,-1.266694665,36.9159776,,,3
0410TKY,Tuskys,-1.262244,36.976393,,,3
0410TMH,Tom Mboya Hall,-1.296982169,36.87764347,,,0
0410TOA,Tononoka,-1.290866733,36.87353969,,,0
0410TOS,Post,-1.280278891,36.91142052,,,0
0410TSH,Tushauriane,-1.266549826,36.91596687,,,3
0410UGI,Gill House,-1.286387444,36.82687998,,,0
0410UIA,Kariobangi South,-1.269827485,36.88094795,,,0
0410UIY,Equity,-1.282774866,36.87991798,,,0
0410ULA,Lumumba Madukani,-1.292379498,36.86973095,,,0
0410USP,Uhuru Shops,-1.28323853,36.87005281,,,0
0410WAA,Car wash,-1.278909445,36.89588249,,,0
0410WDA,Kwa Matunda,-1.267178982,36.91758424,,,3
0410YYN,Nyayo,-1.305892467,36.82677805,,,0
04111YO,Goa Kayole Church,-1.270165443,36.91987753,,,3
04112G4,Stage 24,-1.293361187,36.86358601,,,0
0411A1M,Umoja 1/ CDF,-1.278630495,36.88940227,,,0
0411AAG,Tanga Road,-1.307297945,36.87374353,,,0
0411AAN,Manyanja,-1.293883091,36.88577592,,,0
0411AAS,Railways,-1.289665103,36.82726085,0.0,,0
0411ABT,BAT,-1.305243373,36.8562609,,,0
0411ACD,Makadara/DC,-1.296549171,36.86295301,,,0
0411ACE,Visa Place,-1.278190613,36.89110279,,,0
0411ADR,Makadara,-1.296536922,36.86247289,,,0
0411AGI,Kariobangi,-1.256652474,36.87866002,,,3
0411AIO,Corner,-1.270948648,36.91940546,,,3
0411AJW,Kwa kiwanja,-1.262193918,36.91066146,,,3
0411AKI,Kirwa,-1.287669539,36.89089894,,,0
0411ALB,Sameer/Lab,-1.33061707,36.86482787,,,0
0411AOO,Toyota,-1.30392909,36.82615578,,,0
0411AOT,Standard Group,-1.331099868,36.85982287,,,0
0411APA,Panari,-1.329667568,36.85571909,,,0
0411ASC,Carbanas,-1.3358742,36.89337194,,,0
0411ASI,Naivas,-1.280175447,36.90113157,,,0
0411AUJ,Shujaa,-1.28126058,36.90527827,,,0
0411AWA,Car Wash,-1.284629434,36.90018207,,,0
0411BEN,Bee Centre,-1.28332,36.90191,,,0
0411BIA,Busara primary,-1.278131604,36.89528167,,,0
0411BLK,Kobil,-1.328015327,36.89374208,,,0
0411BP1,Buru Roundabout,-1.277343035,36.8771553,,,0
0411BPF,Buruburu Phase 5 Stage,-1.29418,36.8791,,,0
0411BPS,Ruai Bypass,-1.264119,36.983196,,,3
0411BYU,Buru 1 Primary,-1.274891496,36.87736452,,,0
0411CAI,Oilcom Charina,-1.275661719,36.88887119,,,0
0411CAR,Church Army,-1.294600368,36.85319781,,,0
0411CAT,Nile Junction,-1.297368407,36.86726332,,,0
0411CER,Corner,-1.269335514,36.88177407,,,0
0411CGR,Car  & General,-1.30195,36.83243,,,0
0411CIR,Uchumi-Jogoo Road,-1.29637599,36.86239243,,,0
0411CRG,Cargo,-1.336124,36.916187,,,0
0411CRN,Charina,-1.277621984,36.88863516,,,0
0411CST,City Stadium,-1.292390227,36.84367061,,,0
0411DC,DC,-1.297245026,36.87373281,,,0
0411DEI,Paradise,-1.245167255,36.90730333,,,3
0411DGC,DC Stage,-1.296848059,36.86429679,,,0
0411DLP,Dr. Livingstone Primary School,-1.287251115,36.86531603,,,0
0411DRU,Rounda,-1.262918115,36.8788746,,,0
0411DTB,DT Dobie,-1.29875,36.83781,,,0
0411EAO,Kayole One,-1.262043715,36.91949397,,,3
0411EAS,41 Stage/Cinema,-1.248278618,36.90268993,,,3
0411EDS,Diesel,-1.269875765,36.92001432,,,3
0411EEA,Avenue Park 1,-1.315076351,36.89461112,,,0
0411EEE,Bee Center,-1.282789439,36.90260679,,,0
0411EER,Prestige/ Kayole Center,-1.269924045,36.91993654,,,3
